source,entity_type,credential_type,credential_number,linked_licensee_number,name,abn_acn,locality,state,postcode,start_date,end_date,status,latitude,longitude,distance_km,dataset_url
asic_credit_licensee,licensee,acl,219612,219612,RELI CAPITAL LTD,80005443292,LEONGATHA,VIC,3953,2010-10-04,,APPR,-38.4761569,145.9458605,113.20,https://data.gov.au/data/dataset/fa0b0d71-b8b8-4af8-bc59-0b000ce0d5e4/resource/3abf1383-c4e5-4c1a-8331-8434b17b6f10/download/credit_lic_202602.tsv
asic_credit_licensee,licensee,acl,222213,222213,LA TROBE FINANCIAL ASSET MANAGEMENT LIMITED,27007332363,MELBOURNE,VIC,3000,2011-03-16,,APPR,-37.8142454,144.9631732,0.07,https://data.gov.au/data/dataset/fa0b0d71-b8b8-4af8-bc59-0b000ce0d5e4/resource/3abf1383-c4e5-4c1a-8331-8434b17b6f10/download/credit_lic_202602.tsv
asic_credit_licensee,licensee,acl,222835,222835,PLANNING PARTNERS PTY. LTD.,64090069239,CAMBERWELL,VIC,3124,2011-02-28,,APPR,-37.8384623,145.0740767,10.13,https://data.gov.au/data/dataset/fa0b0d71-b8b8-4af8-bc59-0b000ce0d5e4/resource/3abf1383-c4e5-4c1a-8331-8434b17b6f10/download/credit_lic_202602.tsv
asic_credit_licensee,licensee,acl,223246,223246,RMBL INVESTMENTS LIMITED,19004493789,DANDENONG,VIC,3175,2011-03-03,,APPR,-37.98749,145.2147923,29.35,https://data.gov.au/data/dataset/fa0b0d71-b8b8-4af8-bc59-0b000ce0d5e4/resource/3abf1383-c4e5-4c1a-8331-8434b17b6f10/download/credit_lic_202602.tsv
asic_credit_licensee,licensee,acl,224900,224900,MELMAIN INVESTMENTS LIMITED,86090021462,COBRAM,VIC,3644,2011-04-21,,APPR,-35.9197782,145.6484379,219.23,https://data.gov.au/data/dataset/fa0b0d71-b8b8-4af8-bc59-0b000ce0d5e4/resource/3abf1383-c4e5-4c1a-8331-8434b17b6f10/download/credit_lic_202602.tsv
asic_credit_licensee,licensee,acl,225071,225071,RESULTS FINANCIAL SERVICES PTY LTD,47076742633,BENDIGO,VIC,3550,2011-02-09,,APPR,-36.7590183,144.2826718,131.81,https://data.gov.au/data/dataset/fa0b0d71-b8b8-4af8-bc59-0b000ce0d5e4/resource/3abf1383-c4e5-4c1a-8331-8434b17b6f10/download/credit_lic_202602.tsv
asic_credit_licensee,licensee,acl,227820,227820,CLARKE & BARWOOD LAWYERS COLAC LTD,70089778147,COLAC,VIC,3250,2011-03-16,,APPR,-38.3399766,143.5858537,134.01,https://data.gov.au/data/dataset/fa0b0d71-b8b8-4af8-bc59-0b000ce0d5e4/resource/3abf1383-c4e5-4c1a-8331-8434b17b6f10/download/credit_lic_202602.tsv
asic_credit_licensee,licensee,acl,229242,229242,INNATE WEALTH PTY LTD,66082986641,KEILOR,VIC,3036,2011-03-04,,APPR,-37.7113545,144.8250696,16.63,https://data.gov.au/data/dataset/fa0b0d71-b8b8-4af8-bc59-0b000ce0d5e4/resource/3abf1383-c4e5-4c1a-8331-8434b17b6f10/download/credit_lic_202602.tsv
asic_credit_licensee,licensee,acl,229697,229697,CENTRAL VICTORIAN INVESTMENTS LIMITED,35058071631,BALLARAT CENTRAL,VIC,3350,2011-02-16,,APPR,-37.5627279,143.8501516,101.83,https://data.gov.au/data/dataset/fa0b0d71-b8b8-4af8-bc59-0b000ce0d5e4/resource/3abf1383-c4e5-4c1a-8331-8434b17b6f10/download/credit_lic_202602.tsv
asic_credit_licensee,licensee,acl,229882,229882,NORFINA LIMITED,66010831722,DOCKLANDS,VIC,3008,2011-01-06,,APPR,-37.8175423,144.9394923,2.12,https://data.gov.au/data/dataset/fa0b0d71-b8b8-4af8-bc59-0b000ce0d5e4/resource/3abf1383-c4e5-4c1a-8331-8434b17b6f10/download/credit_lic_202602.tsv
asic_credit_licensee,licensee,acl,230043,230043,AIA AUSTRALIA LIMITED,79004837861,MELBOURNE,VIC,3004,2011-01-10,,APPR,-37.8142454,144.9631732,0.07,https://data.gov.au/data/dataset/fa0b0d71-b8b8-4af8-bc59-0b000ce0d5e4/resource/3abf1383-c4e5-4c1a-8331-8434b17b6f10/download/credit_lic_202602.tsv
asic_credit_licensee,licensee,acl,230208,230208,FARM MORTGAGES LTD.,72005475294,CAMPERDOWN,VIC,3260,2011-03-07,,APPR,-38.2289729999999,143.136785040322,166.51,https://data.gov.au/data/dataset/fa0b0d71-b8b8-4af8-bc59-0b000ce0d5e4/resource/3abf1383-c4e5-4c1a-8331-8434b17b6f10/download/credit_lic_202602.tsv
asic_credit_licensee,licensee,acl,230458,230458,TOTALLY INTEGRATED FINANCIAL PLANNING PTY. LTD.,12062230424,BENTLEIGH,VIC,3204,2011-04-12,,APPR,-37.9175354,145.0369346,13.25,https://data.gov.au/data/dataset/fa0b0d71-b8b8-4af8-bc59-0b000ce0d5e4/resource/3abf1383-c4e5-4c1a-8331-8434b17b6f10/download/credit_lic_202602.tsv
asic_credit_licensee,licensee,acl,230686,230686,NATIONAL AUSTRALIA BANK LIMITED,12004044937,MELBOURNE,VIC,3000,2011-01-01,,APPR,-37.8142454,144.9631732,0.07,https://data.gov.au/data/dataset/fa0b0d71-b8b8-4af8-bc59-0b000ce0d5e4/resource/3abf1383-c4e5-4c1a-8331-8434b17b6f10/download/credit_lic_202602.tsv
asic_credit_licensee,licensee,acl,234527,234527,AUSTRALIA AND NEW ZEALAND BANKING GROUP LIMITED,11005357522,DOCKLANDS,VIC,3008,2011-03-01,,APPR,-37.8175423,144.9394923,2.12,https://data.gov.au/data/dataset/fa0b0d71-b8b8-4af8-bc59-0b000ce0d5e4/resource/3abf1383-c4e5-4c1a-8331-8434b17b6f10/download/credit_lic_202602.tsv
asic_credit_licensee,licensee,acl,234582,234582,DEFENCE BANK LIMITED,57087651385,MELBOURNE,VIC,3000,2010-12-15,,APPR,-37.8142454,144.9631732,0.07,https://data.gov.au/data/dataset/fa0b0d71-b8b8-4af8-bc59-0b000ce0d5e4/resource/3abf1383-c4e5-4c1a-8331-8434b17b6f10/download/credit_lic_202602.tsv
asic_credit_licensee,licensee,acl,234763,234763,ASCENT FUNDS MANAGEMENT LIMITED,40089245330,MELBOURNE,VIC,3000,2010-10-20,,APPR,-37.8142454,144.9631732,0.07,https://data.gov.au/data/dataset/fa0b0d71-b8b8-4af8-bc59-0b000ce0d5e4/resource/3abf1383-c4e5-4c1a-8331-8434b17b6f10/download/credit_lic_202602.tsv
asic_credit_licensee,licensee,acl,234971,234971,WEBSTER DOLILTA FINANCE LTD,49004664322,S BALLARAT,VIC,3350,2010-10-29,,APPR,-37.5623013,143.8605645,100.96,https://data.gov.au/data/dataset/fa0b0d71-b8b8-4af8-bc59-0b000ce0d5e4/resource/3abf1383-c4e5-4c1a-8331-8434b17b6f10/download/credit_lic_202602.tsv
asic_credit_licensee,licensee,acl,235269,235269,PRIME MORTGAGE GROUP LTD.,64007364114,MELBOURNE,VIC,3000,2011-01-27,,APPR,-37.8142454,144.9631732,0.07,https://data.gov.au/data/dataset/fa0b0d71-b8b8-4af8-bc59-0b000ce0d5e4/resource/3abf1383-c4e5-4c1a-8331-8434b17b6f10/download/credit_lic_202602.tsv
asic_credit_licensee,licensee,acl,236509,236509,FIRST OPTION BANK LTD,95087650735,MELBOURNE,VIC,3004,2011-02-01,,APPR,-37.8142454,144.9631732,0.07,https://data.gov.au/data/dataset/fa0b0d71-b8b8-4af8-bc59-0b000ce0d5e4/resource/3abf1383-c4e5-4c1a-8331-8434b17b6f10/download/credit_lic_202602.tsv
asic_credit_licensee,licensee,acl,236556,236556,SHINEWING AUSTRALIA WEALTH PTY LTD,34006341386,MELBOURNE,VIC,3000,2014-08-13,,APPR,-37.8142454,144.9631732,0.07,https://data.gov.au/data/dataset/fa0b0d71-b8b8-4af8-bc59-0b000ce0d5e4/resource/3abf1383-c4e5-4c1a-8331-8434b17b6f10/download/credit_lic_202602.tsv
asic_credit_licensee,licensee,acl,236658,236658,SORRETT FINANCE PTY LTD,76075357274,CREMORNE,VIC,3121,2011-03-16,,APPR,-37.8290227,144.9927735,3.12,https://data.gov.au/data/dataset/fa0b0d71-b8b8-4af8-bc59-0b000ce0d5e4/resource/3abf1383-c4e5-4c1a-8331-8434b17b6f10/download/credit_lic_202602.tsv
asic_credit_licensee,licensee,acl,236665,236665,FUTURITY INVESTMENT GROUP LIMITED,21087648879,MELBOURNE,VIC,3000,2010-12-14,,APPR,-37.8142454,144.9631732,0.07,https://data.gov.au/data/dataset/fa0b0d71-b8b8-4af8-bc59-0b000ce0d5e4/resource/3abf1383-c4e5-4c1a-8331-8434b17b6f10/download/credit_lic_202602.tsv
asic_credit_licensee,licensee,acl,237879,237879,BENDIGO AND ADELAIDE BANK LIMITED,11068049178,BENDIGO,VIC,3550,2011-01-06,,APPR,-36.7590183,144.2826718,131.81,https://data.gov.au/data/dataset/fa0b0d71-b8b8-4af8-bc59-0b000ce0d5e4/resource/3abf1383-c4e5-4c1a-8331-8434b17b6f10/download/credit_lic_202602.tsv
asic_credit_licensee,licensee,acl,237906,237906,SANDHURST TRUSTEES LIMITED,16004030737,BENDIGO,VIC,3550,2011-01-06,,APPR,-36.7590183,144.2826718,131.81,https://data.gov.au/data/dataset/fa0b0d71-b8b8-4af8-bc59-0b000ce0d5e4/resource/3abf1383-c4e5-4c1a-8331-8434b17b6f10/download/credit_lic_202602.tsv
asic_credit_licensee,licensee,acl,238431,238431,BANK AUSTRALIA LIMITED,21087651607,COLLINGWOOD,VIC,3066,2011-02-01,,APPR,-37.802104,144.9881387,2.54,https://data.gov.au/data/dataset/fa0b0d71-b8b8-4af8-bc59-0b000ce0d5e4/resource/3abf1383-c4e5-4c1a-8331-8434b17b6f10/download/credit_lic_202602.tsv
asic_credit_licensee,licensee,acl,238449,238449,PROSOLUTION GROUP PTY LTD,54096725370,MELBOURNE,VIC,3000,2010-10-21,,APPR,-37.8142454,144.9631732,0.07,https://data.gov.au/data/dataset/fa0b0d71-b8b8-4af8-bc59-0b000ce0d5e4/resource/3abf1383-c4e5-4c1a-8331-8434b17b6f10/download/credit_lic_202602.tsv
asic_credit_licensee,licensee,acl,238520,238520,ACCRU WEALTH MANAGEMENT PTY LTD,43083409714,HAWTHORN EAST,VIC,3123,2011-04-19,,APPR,-37.8313785,145.0499797,7.88,https://data.gov.au/data/dataset/fa0b0d71-b8b8-4af8-bc59-0b000ce0d5e4/resource/3abf1383-c4e5-4c1a-8331-8434b17b6f10/download/credit_lic_202602.tsv
asic_credit_licensee,licensee,acl,239446,239446,CENTRAL MURRAY CREDIT UNION LIMITED,69087651812,YARRAWONGA,VIC,3730,2011-01-14,,APPR,-36.0141692,146.0063494,220.53,https://data.gov.au/data/dataset/fa0b0d71-b8b8-4af8-bc59-0b000ce0d5e4/resource/3abf1383-c4e5-4c1a-8331-8434b17b6f10/download/credit_lic_202602.tsv
asic_credit_licensee,licensee,acl,239929,239929,LINK FINANCIAL SERVICES PTY LTD,11106171742,CAULFIELD NORTH,VIC,3161,2010-11-16,,APPR,-37.870828,145.0218005,8.19,https://data.gov.au/data/dataset/fa0b0d71-b8b8-4af8-bc59-0b000ce0d5e4/resource/3abf1383-c4e5-4c1a-8331-8434b17b6f10/download/credit_lic_202602.tsv
asic_credit_licensee,licensee,acl,240293,240293,POLICE FINANCIAL SERVICES LIMITED,33087651661,MELBOURNE,VIC,3000,2010-11-18,,APPR,-37.8142454,144.9631732,0.07,https://data.gov.au/data/dataset/fa0b0d71-b8b8-4af8-bc59-0b000ce0d5e4/resource/3abf1383-c4e5-4c1a-8331-8434b17b6f10/download/credit_lic_202602.tsv
asic_credit_licensee,licensee,acl,240526,240526,ASSOCIATED CONCEPTS PTY. LTD.,65063603298,HAWTHORN,VIC,3122,2011-02-25,,APPR,-37.8244246,145.0317207,6.15,https://data.gov.au/data/dataset/fa0b0d71-b8b8-4af8-bc59-0b000ce0d5e4/resource/3abf1383-c4e5-4c1a-8331-8434b17b6f10/download/credit_lic_202602.tsv
asic_credit_licensee,licensee,acl,240673,240673,DNISTER UKRAINIAN CREDIT CO-OPERATIVE LIMITED,59087651394,ESSENDON,VIC,3040,2010-11-04,,APPR,-37.7498293,144.9109062,8.45,https://data.gov.au/data/dataset/fa0b0d71-b8b8-4af8-bc59-0b000ce0d5e4/resource/3abf1383-c4e5-4c1a-8331-8434b17b6f10/download/credit_lic_202602.tsv
asic_credit_licensee,licensee,acl,240720,240720,WOOLWORTHS TEAM BANK LIMITED,67087651803,MULGRAVE,VIC,3170,2011-02-01,,APPR,-37.9261741,145.1723107,22.22,https://data.gov.au/data/dataset/fa0b0d71-b8b8-4af8-bc59-0b000ce0d5e4/resource/3abf1383-c4e5-4c1a-8331-8434b17b6f10/download/credit_lic_202602.tsv
asic_credit_licensee,licensee,acl,240901,240901,WIN SECURITIES LIMITED,47007346223,WANGARATTA,VIC,3677,2010-11-10,,APPR,-36.356434,146.3228311,201.99,https://data.gov.au/data/dataset/fa0b0d71-b8b8-4af8-bc59-0b000ce0d5e4/resource/3abf1383-c4e5-4c1a-8331-8434b17b6f10/download/credit_lic_202602.tsv
asic_credit_licensee,licensee,acl,240960,240960,VICTORIA TEACHERS LIMITED,44087651769,HAWTHORN EAST,VIC,3123,2010-07-30,,APPR,-37.8313785,145.0499797,7.88,https://data.gov.au/data/dataset/fa0b0d71-b8b8-4af8-bc59-0b000ce0d5e4/resource/3abf1383-c4e5-4c1a-8331-8434b17b6f10/download/credit_lic_202602.tsv
asic_credit_licensee,licensee,acl,241230,241230,HARGRAVES SECURED INVESTMENTS LIMITED,74089001267,YARRAWONGA,VIC,3730,2010-11-26,,APPR,-36.0141692,146.0063494,220.53,https://data.gov.au/data/dataset/fa0b0d71-b8b8-4af8-bc59-0b000ce0d5e4/resource/3abf1383-c4e5-4c1a-8331-8434b17b6f10/download/credit_lic_202602.tsv
asic_credit_licensee,licensee,acl,241364,241364,GOULBURN MURRAY CREDIT UNION CO-OPERATIVE LIMITED,87087651509,SHEPPARTON,VIC,3630,2011-02-01,,APPR,-36.3831633,145.3988874,163.69,https://data.gov.au/data/dataset/fa0b0d71-b8b8-4af8-bc59-0b000ce0d5e4/resource/3abf1383-c4e5-4c1a-8331-8434b17b6f10/download/credit_lic_202602.tsv
asic_credit_licensee,licensee,acl,244115,244115,APS BENEFITS GROUP LTD,64077846809,WEST MELBOURNE,VIC,3003,2011-05-06,,APPR,-37.808747,144.9238207,3.49,https://data.gov.au/data/dataset/fa0b0d71-b8b8-4af8-bc59-0b000ce0d5e4/resource/3abf1383-c4e5-4c1a-8331-8434b17b6f10/download/credit_lic_202602.tsv
asic_credit_licensee,licensee,acl,244351,244351,FORD CO-OPERATIVE CREDIT SOCIETY LIMITED,74087651456,GEELONG,VIC,3220,2010-10-29,,APPR,-38.1493248,144.3598241,64.72,https://data.gov.au/data/dataset/fa0b0d71-b8b8-4af8-bc59-0b000ce0d5e4/resource/3abf1383-c4e5-4c1a-8331-8434b17b6f10/download/credit_lic_202602.tsv
asic_credit_licensee,licensee,acl,244565,244565,SECURITY NATIONAL FINANCIAL SERVICES PTY. LTD.,54007375420,MELBOURNE,VIC,3004,2011-01-10,,APPR,-37.8142454,144.9631732,0.07,https://data.gov.au/data/dataset/fa0b0d71-b8b8-4af8-bc59-0b000ce0d5e4/resource/3abf1383-c4e5-4c1a-8331-8434b17b6f10/download/credit_lic_202602.tsv
asic_credit_licensee,licensee,acl,245606,245606,HEARTLAND BANK AUSTRALIA LIMITED,54087651750,MELBOURNE,VIC,3000,2010-11-30,,APPR,-37.8142454,144.9631732,0.07,https://data.gov.au/data/dataset/fa0b0d71-b8b8-4af8-bc59-0b000ce0d5e4/resource/3abf1383-c4e5-4c1a-8331-8434b17b6f10/download/credit_lic_202602.tsv
asic_credit_licensee,licensee,acl,247014,247014,KELVIN ANDERSON FINANCIAL SERVICES PTY. LTD.,85086456377,RINGWOOD,VIC,3134,2011-02-15,,APPR,-37.8158726,145.22911125106,23.37,https://data.gov.au/data/dataset/fa0b0d71-b8b8-4af8-bc59-0b000ce0d5e4/resource/3abf1383-c4e5-4c1a-8331-8434b17b6f10/download/credit_lic_202602.tsv
asic_credit_licensee,licensee,acl,247271,247271,MERCEDES-BENZ FINANCIAL SERVICES AUSTRALIA PTY LTD,73074134517,MULGRAVE,VIC,3170,2011-01-12,,APPR,-37.9261741,145.1723107,22.22,https://data.gov.au/data/dataset/fa0b0d71-b8b8-4af8-bc59-0b000ce0d5e4/resource/3abf1383-c4e5-4c1a-8331-8434b17b6f10/download/credit_lic_202602.tsv
asic_credit_licensee,licensee,acl,247298,247298,WAW CREDIT UNION CO-OPERATIVE LIMITED,48087651787,WODONGA,VIC,3690,2011-03-07,,APPR,-36.1205539,146.8880837,254.33,https://data.gov.au/data/dataset/fa0b0d71-b8b8-4af8-bc59-0b000ce0d5e4/resource/3abf1383-c4e5-4c1a-8331-8434b17b6f10/download/credit_lic_202602.tsv
asic_credit_licensee,licensee,acl,247388,247388,ACS FINANCIAL PTY LTD,62448122,SURREY HILLS,VIC,3127,2016-06-07,,APPR,-37.8271881,145.0978326,11.93,https://data.gov.au/data/dataset/fa0b0d71-b8b8-4af8-bc59-0b000ce0d5e4/resource/3abf1383-c4e5-4c1a-8331-8434b17b6f10/download/credit_lic_202602.tsv
asic_credit_licensee,licensee,acl,257751,257751,"""LITHUANIAN CO-OPERATIVE CREDIT SOCIETY """"TALKA"""" LIMITED""",97087651554,NORTH MELBOURNE,VIC,3051,2011-04-19,,APPR,-37.7985747,144.9451741,2.30,https://data.gov.au/data/dataset/fa0b0d71-b8b8-4af8-bc59-0b000ce0d5e4/resource/3abf1383-c4e5-4c1a-8331-8434b17b6f10/download/credit_lic_202602.tsv
asic_credit_licensee,licensee,acl,260499,260499,AUSTRALIAN SECURITIES LIMITED,69005428231,MELBOURNE,VIC,3000,2010-11-08,,APPR,-37.8142454,144.9631732,0.07,https://data.gov.au/data/dataset/fa0b0d71-b8b8-4af8-bc59-0b000ce0d5e4/resource/3abf1383-c4e5-4c1a-8331-8434b17b6f10/download/credit_lic_202602.tsv
asic_credit_licensee,licensee,acl,278161,278161,THE COMPLETE PLANNER PTY LTD,48077994104,MOUNT WAVERLEY,VIC,3149,2011-01-28,,APPR,-37.8752637,145.1281258,16.03,https://data.gov.au/data/dataset/fa0b0d71-b8b8-4af8-bc59-0b000ce0d5e4/resource/3abf1383-c4e5-4c1a-8331-8434b17b6f10/download/credit_lic_202602.tsv
asic_credit_licensee,licensee,acl,284901,284901,DUNBAR HOUSE FINANCIAL SERVICES PTY LTD,28079653768,BALLARAT,VIC,3350,2011-03-10,,APPR,-37.5623013,143.8605645,100.96,https://data.gov.au/data/dataset/fa0b0d71-b8b8-4af8-bc59-0b000ce0d5e4/resource/3abf1383-c4e5-4c1a-8331-8434b17b6f10/download/credit_lic_202602.tsv
asic_credit_licensee,licensee,acl,286596,286596,LIBERTY FINANCIAL PTY LTD,55077248983,MELBOURNE,VIC,3000,2011-01-17,,APPR,-37.8142454,144.9631732,0.07,https://data.gov.au/data/dataset/fa0b0d71-b8b8-4af8-bc59-0b000ce0d5e4/resource/3abf1383-c4e5-4c1a-8331-8434b17b6f10/download/credit_lic_202602.tsv
asic_credit_licensee,licensee,acl,289559,289559,HUNTER REDDING FINANCIAL SERVICES PTY LTD,11111575252,CARLTON NORTH,VIC,3054,2011-03-10,,APPR,-37.7845585,144.9728553,3.34,https://data.gov.au/data/dataset/fa0b0d71-b8b8-4af8-bc59-0b000ce0d5e4/resource/3abf1383-c4e5-4c1a-8331-8434b17b6f10/download/credit_lic_202602.tsv
asic_credit_licensee,licensee,acl,291356,291356,MCCA ASSET MANAGEMENT LIMITED,18113728706,COBURG,VIC,3058,2011-02-08,,APPR,-37.7449752,144.9643314,7.63,https://data.gov.au/data/dataset/fa0b0d71-b8b8-4af8-bc59-0b000ce0d5e4/resource/3abf1383-c4e5-4c1a-8331-8434b17b6f10/download/credit_lic_202602.tsv
asic_credit_licensee,licensee,acl,293334,293334,GRIMSEY WEALTH PTY LTD,90113911247,MELBOURNE,VIC,3000,2011-02-11,,APPR,-37.8142454,144.9631732,0.07,https://data.gov.au/data/dataset/fa0b0d71-b8b8-4af8-bc59-0b000ce0d5e4/resource/3abf1383-c4e5-4c1a-8331-8434b17b6f10/download/credit_lic_202602.tsv
asic_credit_licensee,licensee,acl,295436,295436,WHITE GROUP (VIC) PTY LTD,60116978253,NARRE WARREN,VIC,3805,2011-03-01,,APPR,-38.02765655,145.304038085989,38.22,https://data.gov.au/data/dataset/fa0b0d71-b8b8-4af8-bc59-0b000ce0d5e4/resource/3abf1383-c4e5-4c1a-8331-8434b17b6f10/download/credit_lic_202602.tsv
asic_credit_licensee,licensee,acl,299054,299054,MCMILLAN SHAKESPEARE LIMITED,74107233983,MELBOURNE,VIC,3000,2011-04-19,,APPR,-37.8142454,144.9631732,0.07,https://data.gov.au/data/dataset/fa0b0d71-b8b8-4af8-bc59-0b000ce0d5e4/resource/3abf1383-c4e5-4c1a-8331-8434b17b6f10/download/credit_lic_202602.tsv
asic_credit_licensee,licensee,acl,306803,306803,CASHEL FINANCIAL SERVICES PTY LTD,23106177093,MELBOURNE,VIC,3000,2019-02-01,,APPR,-37.8142454,144.9631732,0.07,https://data.gov.au/data/dataset/fa0b0d71-b8b8-4af8-bc59-0b000ce0d5e4/resource/3abf1383-c4e5-4c1a-8331-8434b17b6f10/download/credit_lic_202602.tsv
asic_credit_licensee,licensee,acl,311128,311128,REDZED LENDING SOLUTIONS PTY LTD,31123588527,MELBOURNE,VIC,3000,2011-02-18,,APPR,-37.8142454,144.9631732,0.07,https://data.gov.au/data/dataset/fa0b0d71-b8b8-4af8-bc59-0b000ce0d5e4/resource/3abf1383-c4e5-4c1a-8331-8434b17b6f10/download/credit_lic_202602.tsv
asic_credit_licensee,licensee,acl,311489,311489,ADVANTAGE ADVISORS CORPORATE PTY LTD,66109824786,WHEELERS HILL,VIC,3150,2011-04-05,,APPR,-37.9103266,145.1895175,22.60,https://data.gov.au/data/dataset/fa0b0d71-b8b8-4af8-bc59-0b000ce0d5e4/resource/3abf1383-c4e5-4c1a-8331-8434b17b6f10/download/credit_lic_202602.tsv
asic_credit_licensee,licensee,acl,316972,316972,PRIME TIME ADVISORY PTY LTD,125456984,BLACKBURN,VIC,3130,2010-10-14,,APPR,-37.82013725,145.150049618224,16.44,https://data.gov.au/data/dataset/fa0b0d71-b8b8-4af8-bc59-0b000ce0d5e4/resource/3abf1383-c4e5-4c1a-8331-8434b17b6f10/download/credit_lic_202602.tsv
asic_credit_licensee,licensee,acl,335001,335001,MILLBROOK ASSET MANAGEMENT LTD,81123219732,MELBOURNE,VIC,3000,2011-02-21,,APPR,-37.8142454,144.9631732,0.07,https://data.gov.au/data/dataset/fa0b0d71-b8b8-4af8-bc59-0b000ce0d5e4/resource/3abf1383-c4e5-4c1a-8331-8434b17b6f10/download/credit_lic_202602.tsv
asic_credit_licensee,licensee,acl,339044,339044,PORTFOLIO PLANNERS PTY LTD,19007350147,BRIGHTON,VIC,3186,2011-02-16,,APPR,-37.9081962,144.9957991,10.90,https://data.gov.au/data/dataset/fa0b0d71-b8b8-4af8-bc59-0b000ce0d5e4/resource/3abf1383-c4e5-4c1a-8331-8434b17b6f10/download/credit_lic_202602.tsv
asic_credit_licensee,licensee,acl,341162,341162,JBWERE LTD,68137978360,MELBOURNE,VIC,3000,2011-04-08,,APPR,-37.8142454,144.9631732,0.07,https://data.gov.au/data/dataset/fa0b0d71-b8b8-4af8-bc59-0b000ce0d5e4/resource/3abf1383-c4e5-4c1a-8331-8434b17b6f10/download/credit_lic_202602.tsv
asic_credit_licensee,licensee,acl,344486,344486,VASCO TRUSTEES LIMITED,71138715009,MELBOURNE,VIC,3000,2015-11-18,,APPR,-37.8142454,144.9631732,0.07,https://data.gov.au/data/dataset/fa0b0d71-b8b8-4af8-bc59-0b000ce0d5e4/resource/3abf1383-c4e5-4c1a-8331-8434b17b6f10/download/credit_lic_202602.tsv
asic_credit_licensee,licensee,acl,344748,344748,RAHALI CORPORATION PTY. LTD.,70079525081,DOCKLANDS,VIC,3008,2011-02-08,,APPR,-37.8175423,144.9394923,2.12,https://data.gov.au/data/dataset/fa0b0d71-b8b8-4af8-bc59-0b000ce0d5e4/resource/3abf1383-c4e5-4c1a-8331-8434b17b6f10/download/credit_lic_202602.tsv
asic_credit_licensee,licensee,acl,364340,364340,STRATTON FINANCE PTY LTD,63070636903,MELBOURNE,VIC,3207,2010-09-08,,APPR,-37.8142454,144.9631732,0.07,https://data.gov.au/data/dataset/fa0b0d71-b8b8-4af8-bc59-0b000ce0d5e4/resource/3abf1383-c4e5-4c1a-8331-8434b17b6f10/download/credit_lic_202602.tsv
asic_credit_licensee,licensee,acl,364352,364352,NORTHEND MORTGAGE & ASSOCIATES PTY. LTD.,99099760200,LALOR,VIC,3075,2010-09-06,,APPR,-37.662922,145.003955,17.14,https://data.gov.au/data/dataset/fa0b0d71-b8b8-4af8-bc59-0b000ce0d5e4/resource/3abf1383-c4e5-4c1a-8331-8434b17b6f10/download/credit_lic_202602.tsv
asic_credit_licensee,licensee,acl,364407,364407,FINANCE ASSIST PTY LTD,76097693046,NORTH MELBOURNE,VIC,3051,2010-08-17,,APPR,-37.7985747,144.9451741,2.30,https://data.gov.au/data/dataset/fa0b0d71-b8b8-4af8-bc59-0b000ce0d5e4/resource/3abf1383-c4e5-4c1a-8331-8434b17b6f10/download/credit_lic_202602.tsv
asic_credit_licensee,licensee,acl,364452,364452,BLUE KEY FINANCE PTY LTD,87109116412,ENDEAVOUR HILLS,VIC,3802,2010-08-11,,APPR,-37.9702665,145.2563443,31.07,https://data.gov.au/data/dataset/fa0b0d71-b8b8-4af8-bc59-0b000ce0d5e4/resource/3abf1383-c4e5-4c1a-8331-8434b17b6f10/download/credit_lic_202602.tsv
asic_credit_licensee,licensee,acl,364571,364571,"HERATH, CHAMPIKA",71268069697,POINT COOK,VIC,3030,2010-08-27,,APPR,-37.9064862,144.7533059,21.12,https://data.gov.au/data/dataset/fa0b0d71-b8b8-4af8-bc59-0b000ce0d5e4/resource/3abf1383-c4e5-4c1a-8331-8434b17b6f10/download/credit_lic_202602.tsv
asic_credit_licensee,licensee,acl,365068,365068,"CHEN, LEI",34572834737,BOX HILL,VIC,3128,2010-08-12,,APPR,-37.8215116,145.1261267,14.35,https://data.gov.au/data/dataset/fa0b0d71-b8b8-4af8-bc59-0b000ce0d5e4/resource/3abf1383-c4e5-4c1a-8331-8434b17b6f10/download/credit_lic_202602.tsv
asic_credit_licensee,licensee,acl,365382,365382,PENTACLE INVESTMENTS INTERNATIONAL PTY LIMITED,23003666733,EUROA,VIC,3666,2010-08-31,,APPR,-36.773286,145.582930999369,128.01,https://data.gov.au/data/dataset/fa0b0d71-b8b8-4af8-bc59-0b000ce0d5e4/resource/3abf1383-c4e5-4c1a-8331-8434b17b6f10/download/credit_lic_202602.tsv
asic_credit_licensee,licensee,acl,365797,365797,BERKELEY CAPITAL PARTNERS PTY LTD,78247319,PARKVILLE,VIC,3052,2010-09-14,,APPR,-37.7871148,144.9515533,3.11,https://data.gov.au/data/dataset/fa0b0d71-b8b8-4af8-bc59-0b000ce0d5e4/resource/3abf1383-c4e5-4c1a-8331-8434b17b6f10/download/credit_lic_202602.tsv
asic_credit_licensee,licensee,acl,374850,374850,DPM LENDING PTY LTD,19111003395,MELBOURNE,VIC,3004,2010-09-20,,APPR,-37.8142454,144.9631732,0.07,https://data.gov.au/data/dataset/fa0b0d71-b8b8-4af8-bc59-0b000ce0d5e4/resource/3abf1383-c4e5-4c1a-8331-8434b17b6f10/download/credit_lic_202602.tsv
asic_credit_licensee,licensee,acl,374861,374861,ARMADALE HOUSE PTY. LTD.,28095723283,ECHUCA,VIC,3564,2010-11-03,,APPR,-36.1281405,144.7516955,188.35,https://data.gov.au/data/dataset/fa0b0d71-b8b8-4af8-bc59-0b000ce0d5e4/resource/3abf1383-c4e5-4c1a-8331-8434b17b6f10/download/credit_lic_202602.tsv
asic_credit_licensee,licensee,acl,374907,374907,PROVINCIAL HOME LOANS PTY LTD,60059954200,CARLTON,VIC,3053,2010-08-24,,APPR,-37.8004228,144.9684343,1.54,https://data.gov.au/data/dataset/fa0b0d71-b8b8-4af8-bc59-0b000ce0d5e4/resource/3abf1383-c4e5-4c1a-8331-8434b17b6f10/download/credit_lic_202602.tsv
asic_credit_licensee,licensee,acl,376114,376114,STALLION GUARD FINANCIAL SERVICES PTY LTD,83109647467,MILL PARK,VIC,3082,2010-08-26,,APPR,-37.6641334,145.0642681,18.85,https://data.gov.au/data/dataset/fa0b0d71-b8b8-4af8-bc59-0b000ce0d5e4/resource/3abf1383-c4e5-4c1a-8331-8434b17b6f10/download/credit_lic_202602.tsv
asic_credit_licensee,licensee,acl,376176,376176,"FOURNARAKIS, STAN",44868056659,CARNEGIE,VIC,3163,2010-09-01,,APPR,-37.88622945,145.058569545966,11.64,https://data.gov.au/data/dataset/fa0b0d71-b8b8-4af8-bc59-0b000ce0d5e4/resource/3abf1383-c4e5-4c1a-8331-8434b17b6f10/download/credit_lic_202602.tsv
asic_credit_licensee,licensee,acl,376280,376280,GEELONG FINANCIAL GROUP PTY LTD,99062254,GEELONG,VIC,3220,2010-12-01,,APPR,-38.1493248,144.3598241,64.72,https://data.gov.au/data/dataset/fa0b0d71-b8b8-4af8-bc59-0b000ce0d5e4/resource/3abf1383-c4e5-4c1a-8331-8434b17b6f10/download/credit_lic_202602.tsv
asic_credit_licensee,licensee,acl,376912,376912,HAWTHORN FINANCE PTY LTD,13135770857,HAWTHORN,VIC,3122,2010-11-09,,APPR,-37.8244246,145.0317207,6.15,https://data.gov.au/data/dataset/fa0b0d71-b8b8-4af8-bc59-0b000ce0d5e4/resource/3abf1383-c4e5-4c1a-8331-8434b17b6f10/download/credit_lic_202602.tsv
asic_credit_licensee,licensee,acl,377096,377096,"HINE, STEWART JOHN",61361129575,DINGLEY VILLAGE,VIC,3172,2010-08-19,,APPR,-37.9755762,145.1256478,22.97,https://data.gov.au/data/dataset/fa0b0d71-b8b8-4af8-bc59-0b000ce0d5e4/resource/3abf1383-c4e5-4c1a-8331-8434b17b6f10/download/credit_lic_202602.tsv
asic_credit_licensee,licensee,acl,377300,377300,VICTORIAN COMMERCIAL & HOME LOAN GROUP PTY LTD,75055688045,NORTH MELBOURNE,VIC,3051,2010-10-13,,APPR,-37.7985747,144.9451741,2.30,https://data.gov.au/data/dataset/fa0b0d71-b8b8-4af8-bc59-0b000ce0d5e4/resource/3abf1383-c4e5-4c1a-8331-8434b17b6f10/download/credit_lic_202602.tsv
asic_credit_licensee,licensee,acl,378438,378438,D F DUFFY & E M HUME,67864510167,PAKENHAM,VIC,3810,2010-09-08,,APPR,-38.0806283,145.4863217,54.65,https://data.gov.au/data/dataset/fa0b0d71-b8b8-4af8-bc59-0b000ce0d5e4/resource/3abf1383-c4e5-4c1a-8331-8434b17b6f10/download/credit_lic_202602.tsv
asic_credit_licensee,licensee,acl,378482,378482,CADACO PTY LTD,25135000056,NORTH,VIC,3129,2010-09-23,,APPR,-38.1439042,144.3623015,64.20,https://data.gov.au/data/dataset/fa0b0d71-b8b8-4af8-bc59-0b000ce0d5e4/resource/3abf1383-c4e5-4c1a-8331-8434b17b6f10/download/credit_lic_202602.tsv
asic_credit_licensee,licensee,acl,379381,379381,FOREVER HOLDINGS PTY LIMITED,40093004507,CANTERBURY,VIC,3126,2010-10-22,,APPR,-37.8247469,145.0807636,10.41,https://data.gov.au/data/dataset/fa0b0d71-b8b8-4af8-bc59-0b000ce0d5e4/resource/3abf1383-c4e5-4c1a-8331-8434b17b6f10/download/credit_lic_202602.tsv
asic_credit_licensee,licensee,acl,379603,379603,FLAKA DOG PTY. LIMITED,40088918165,CHELTENHAM,VIC,3192,2010-09-06,,APPR,-37.9670081,145.0546951,18.86,https://data.gov.au/data/dataset/fa0b0d71-b8b8-4af8-bc59-0b000ce0d5e4/resource/3abf1383-c4e5-4c1a-8331-8434b17b6f10/download/credit_lic_202602.tsv
asic_credit_licensee,licensee,acl,380270,380270,LJ HOOKER HOME LOANS PTY LIMITED,34106564765,PRESTON,VIC,3072,2010-10-01,,APPR,-37.7418658,145.0078205,8.89,https://data.gov.au/data/dataset/fa0b0d71-b8b8-4af8-bc59-0b000ce0d5e4/resource/3abf1383-c4e5-4c1a-8331-8434b17b6f10/download/credit_lic_202602.tsv
asic_credit_licensee,licensee,acl,380527,380527,KARETTA FINANCE PTY LTD,72137253331,SOUTH YARRA,VIC,3141,2010-09-23,,APPR,-37.8377695,144.9918537,3.69,https://data.gov.au/data/dataset/fa0b0d71-b8b8-4af8-bc59-0b000ce0d5e4/resource/3abf1383-c4e5-4c1a-8331-8434b17b6f10/download/credit_lic_202602.tsv
asic_credit_licensee,licensee,acl,381128,381128,SUCCESSFUL MONEY MANAGEMENT PTY LTD,91092995545,WAURN PONDS,VIC,3216,2010-09-20,,APPR,-38.2037227,144.3022306,72.35,https://data.gov.au/data/dataset/fa0b0d71-b8b8-4af8-bc59-0b000ce0d5e4/resource/3abf1383-c4e5-4c1a-8331-8434b17b6f10/download/credit_lic_202602.tsv
asic_credit_licensee,licensee,acl,381336,381336,KEY MORTGAGE SOLUTIONS PTY LTD,99319436,CLIFTON HILL,VIC,3068,2010-09-13,,APPR,-37.78887625,144.995361329669,3.95,https://data.gov.au/data/dataset/fa0b0d71-b8b8-4af8-bc59-0b000ce0d5e4/resource/3abf1383-c4e5-4c1a-8331-8434b17b6f10/download/credit_lic_202602.tsv
asic_credit_licensee,licensee,acl,381438,381438,AUSTRALIAN MORTGAGE MANAGERS PTY LTD,77055688054,RIDGEWAY IVANHOE,VIC,3079,2010-10-04,,APPR,-37.7737064195398,145.043906258154,8.37,https://data.gov.au/data/dataset/fa0b0d71-b8b8-4af8-bc59-0b000ce0d5e4/resource/3abf1383-c4e5-4c1a-8331-8434b17b6f10/download/credit_lic_202602.tsv
asic_credit_licensee,licensee,acl,381713,381713,BOLAND INVESTMENTS PTY LTD,92633380,CAMBERWELL,VIC,3124,2010-11-03,,APPR,-37.8384623,145.0740767,10.13,https://data.gov.au/data/dataset/fa0b0d71-b8b8-4af8-bc59-0b000ce0d5e4/resource/3abf1383-c4e5-4c1a-8331-8434b17b6f10/download/credit_lic_202602.tsv
asic_credit_licensee,licensee,acl,382365,382365,PINDAN VIC PTY LTD,26077831184,PATTERSON LAKES,VIC,3197,2010-09-28,,APPR,-38.0694493,145.1432329,32.54,https://data.gov.au/data/dataset/fa0b0d71-b8b8-4af8-bc59-0b000ce0d5e4/resource/3abf1383-c4e5-4c1a-8331-8434b17b6f10/download/credit_lic_202602.tsv
asic_credit_licensee,licensee,acl,382373,382373,FARADAY WEST & CO PTY LTD,38089898715,HAWTHORN,VIC,3122,2010-09-21,,APPR,-37.8244246,145.0317207,6.15,https://data.gov.au/data/dataset/fa0b0d71-b8b8-4af8-bc59-0b000ce0d5e4/resource/3abf1383-c4e5-4c1a-8331-8434b17b6f10/download/credit_lic_202602.tsv
asic_credit_licensee,licensee,acl,382715,382715,ETHICAL LENDING CONCEPTS PTY LTD,135415566,MELBOURNE,VIC,3000,2010-10-18,,APPR,-37.8142454,144.9631732,0.07,https://data.gov.au/data/dataset/fa0b0d71-b8b8-4af8-bc59-0b000ce0d5e4/resource/3abf1383-c4e5-4c1a-8331-8434b17b6f10/download/credit_lic_202602.tsv
asic_credit_licensee,licensee,acl,382764,382764,COMMERCIAL & RURAL LENDING SERVICES PTY LTD,105208222,KIALLA,VIC,3631,2010-09-29,,APPR,-36.445075,145.406457770405,157.17,https://data.gov.au/data/dataset/fa0b0d71-b8b8-4af8-bc59-0b000ce0d5e4/resource/3abf1383-c4e5-4c1a-8331-8434b17b6f10/download/credit_lic_202602.tsv
asic_credit_licensee,licensee,acl,382791,382791,MORTGAGE TRACK PTY. LTD.,95097041864,AVENUE BALACLAVA,VIC,3183,2010-09-21,,APPR,-37.8749667,144.7862394,16.96,https://data.gov.au/data/dataset/fa0b0d71-b8b8-4af8-bc59-0b000ce0d5e4/resource/3abf1383-c4e5-4c1a-8331-8434b17b6f10/download/credit_lic_202602.tsv
asic_credit_licensee,licensee,acl,382822,382822,ORIENTAL GROUP PTY. LTD.,62114249339,MALVERN EAST,VIC,3145,2010-10-27,,APPR,-37.876835,145.0658739,11.44,https://data.gov.au/data/dataset/fa0b0d71-b8b8-4af8-bc59-0b000ce0d5e4/resource/3abf1383-c4e5-4c1a-8331-8434b17b6f10/download/credit_lic_202602.tsv
asic_credit_licensee,licensee,acl,382830,382830,DOCHERTY HOLDINGS PTY LTD,83531800,BURWOOD,VIC,3125,2010-10-13,,APPR,-37.849578,145.1113915,13.62,https://data.gov.au/data/dataset/fa0b0d71-b8b8-4af8-bc59-0b000ce0d5e4/resource/3abf1383-c4e5-4c1a-8331-8434b17b6f10/download/credit_lic_202602.tsv
asic_credit_licensee,licensee,acl,382831,382831,PEOPLE FIRST FINANCE GROUP PTY LTD,137188928,MULGRAVE,VIC,3170,2010-11-05,,APPR,-37.9261741,145.1723107,22.22,https://data.gov.au/data/dataset/fa0b0d71-b8b8-4af8-bc59-0b000ce0d5e4/resource/3abf1383-c4e5-4c1a-8331-8434b17b6f10/download/credit_lic_202602.tsv
asic_credit_licensee,licensee,acl,382869,382869,MORTGAGE CHOICE PTY LTD,57009161979,RICHMOND,VIC,3121,2010-12-24,,APPR,-37.8203955,145.0025153,3.54,https://data.gov.au/data/dataset/fa0b0d71-b8b8-4af8-bc59-0b000ce0d5e4/resource/3abf1383-c4e5-4c1a-8331-8434b17b6f10/download/credit_lic_202602.tsv
asic_credit_licensee,licensee,acl,383082,383082,TRAILERHOMES PTY. LTD.,107895652,MELBOURNE,VIC,3004,2010-10-27,,APPR,-37.8142454,144.9631732,0.07,https://data.gov.au/data/dataset/fa0b0d71-b8b8-4af8-bc59-0b000ce0d5e4/resource/3abf1383-c4e5-4c1a-8331-8434b17b6f10/download/credit_lic_202602.tsv
asic_credit_licensee,licensee,acl,383119,383119,CNL SMILE INVESTMENTS PTY LTD,53122338710,BULLEEN,VIC,3105,2010-10-08,,APPR,-37.7688992,145.0871992,11.98,https://data.gov.au/data/dataset/fa0b0d71-b8b8-4af8-bc59-0b000ce0d5e4/resource/3abf1383-c4e5-4c1a-8331-8434b17b6f10/download/credit_lic_202602.tsv
asic_credit_licensee,licensee,acl,383120,383120,BABILON PTY LTD,48113833757,THORNBURY,VIC,3071,2010-10-14,,APPR,-37.7549944,144.9985944,7.22,https://data.gov.au/data/dataset/fa0b0d71-b8b8-4af8-bc59-0b000ce0d5e4/resource/3abf1383-c4e5-4c1a-8331-8434b17b6f10/download/credit_lic_202602.tsv
asic_credit_licensee,licensee,acl,383122,383122,"IRIKS, SCOTT",0,CREMORNE,VIC,3121,2010-11-03,,APPR,-37.8290227,144.9927735,3.12,https://data.gov.au/data/dataset/fa0b0d71-b8b8-4af8-bc59-0b000ce0d5e4/resource/3abf1383-c4e5-4c1a-8331-8434b17b6f10/download/credit_lic_202602.tsv
asic_credit_licensee,licensee,acl,383467,383467,ENLIGHTEN FINANCE PTY LTD,22145010028,AVONDALE HEIGHTS,VIC,3034,2010-10-12,,APPR,-37.7614537,144.862141,10.60,https://data.gov.au/data/dataset/fa0b0d71-b8b8-4af8-bc59-0b000ce0d5e4/resource/3abf1383-c4e5-4c1a-8331-8434b17b6f10/download/credit_lic_202602.tsv
asic_credit_licensee,licensee,acl,383519,383519,WHITESTAR FINANCE PTY LTD,13085123539,ROWVILLE,VIC,3178,2010-10-06,,APPR,-37.9239267,145.2447672,27.60,https://data.gov.au/data/dataset/fa0b0d71-b8b8-4af8-bc59-0b000ce0d5e4/resource/3abf1383-c4e5-4c1a-8331-8434b17b6f10/download/credit_lic_202602.tsv
asic_credit_licensee,licensee,acl,383638,383638,M2M INVESTMENTS PTY. LTD.,104881629,CLAYTON,VIC,3168,2010-11-03,,APPR,-37.9142211,145.1268559,18.22,https://data.gov.au/data/dataset/fa0b0d71-b8b8-4af8-bc59-0b000ce0d5e4/resource/3abf1383-c4e5-4c1a-8331-8434b17b6f10/download/credit_lic_202602.tsv
asic_credit_licensee,licensee,acl,383667,383667,LEESVILLE INVESTMENT FINANCE ENTERPRISES PTY. LTD.,89004738265,RICHMOND,VIC,3121,2010-11-24,,APPR,-37.8203955,145.0025153,3.54,https://data.gov.au/data/dataset/fa0b0d71-b8b8-4af8-bc59-0b000ce0d5e4/resource/3abf1383-c4e5-4c1a-8331-8434b17b6f10/download/credit_lic_202602.tsv
asic_credit_licensee,licensee,acl,383686,383686,MONTREO FINANCE & INSURANCE SERVICES PTY LTD,139418563,BUNDOORA,VIC,3083,2010-10-20,,APPR,-37.6982468,145.0596757,15.38,https://data.gov.au/data/dataset/fa0b0d71-b8b8-4af8-bc59-0b000ce0d5e4/resource/3abf1383-c4e5-4c1a-8331-8434b17b6f10/download/credit_lic_202602.tsv
asic_credit_licensee,licensee,acl,383691,383691,WEALTHLINKS (E&W) PTY LTD,73122887245,DOCKLANDS,VIC,3008,2010-11-12,,APPR,-37.8175423,144.9394923,2.12,https://data.gov.au/data/dataset/fa0b0d71-b8b8-4af8-bc59-0b000ce0d5e4/resource/3abf1383-c4e5-4c1a-8331-8434b17b6f10/download/credit_lic_202602.tsv
asic_credit_licensee,licensee,acl,383893,383893,PERFECT FINANCE SOLUTIONS PTY LTD,42108562698,WAVERLEY,VIC,3150,2010-11-18,,APPR,-37.8796677499999,145.162916248939,19.02,https://data.gov.au/data/dataset/fa0b0d71-b8b8-4af8-bc59-0b000ce0d5e4/resource/3abf1383-c4e5-4c1a-8331-8434b17b6f10/download/credit_lic_202602.tsv
asic_credit_licensee,licensee,acl,383972,383972,"WINTER, MERY-ANNE",0,NIDDRIE,VIC,3042,2010-10-12,,APPR,-37.7397699,144.8847881,10.71,https://data.gov.au/data/dataset/fa0b0d71-b8b8-4af8-bc59-0b000ce0d5e4/resource/3abf1383-c4e5-4c1a-8331-8434b17b6f10/download/credit_lic_202602.tsv
asic_credit_licensee,licensee,acl,383989,383989,CORRADO PTY LTD,70103810457,SORRENTO,VIC,3943,2010-10-28,,APPR,-38.3447273,144.7420938,62.15,https://data.gov.au/data/dataset/fa0b0d71-b8b8-4af8-bc59-0b000ce0d5e4/resource/3abf1383-c4e5-4c1a-8331-8434b17b6f10/download/credit_lic_202602.tsv
asic_credit_licensee,licensee,acl,384051,384051,JOHUSTEL PTY LTD,143773059,KILDA EAST,VIC,3183,2010-10-11,,APPR,-37.8668218,145.0021657,6.84,https://data.gov.au/data/dataset/fa0b0d71-b8b8-4af8-bc59-0b000ce0d5e4/resource/3abf1383-c4e5-4c1a-8331-8434b17b6f10/download/credit_lic_202602.tsv
asic_credit_licensee,licensee,acl,384143,384143,CENTRAL MORTGAGE PTY. LTD.,86124555013,DOREEN,VIC,3754,2010-10-13,,APPR,-37.5963874,145.1428928,28.87,https://data.gov.au/data/dataset/fa0b0d71-b8b8-4af8-bc59-0b000ce0d5e4/resource/3abf1383-c4e5-4c1a-8331-8434b17b6f10/download/credit_lic_202602.tsv
asic_credit_licensee,licensee,acl,384209,384209,RED ROCK MORTGAGE GROUP PTY LTD,42111216598,MELBOURNE,VIC,3004,2010-10-27,,APPR,-37.8142454,144.9631732,0.07,https://data.gov.au/data/dataset/fa0b0d71-b8b8-4af8-bc59-0b000ce0d5e4/resource/3abf1383-c4e5-4c1a-8331-8434b17b6f10/download/credit_lic_202602.tsv
asic_credit_licensee,licensee,acl,384312,384312,H.L.G.M. LOANS PTY LTD,121197911,MITCHAM,VIC,3132,2010-11-23,,APPR,-37.8180929,145.1928003,20.18,https://data.gov.au/data/dataset/fa0b0d71-b8b8-4af8-bc59-0b000ce0d5e4/resource/3abf1383-c4e5-4c1a-8331-8434b17b6f10/download/credit_lic_202602.tsv
asic_credit_licensee,licensee,acl,384404,384404,RATESONLINE.COM.AU PTY LTD,98122052582,MELBOURNE,VIC,3000,2010-11-24,,APPR,-37.8142454,144.9631732,0.07,https://data.gov.au/data/dataset/fa0b0d71-b8b8-4af8-bc59-0b000ce0d5e4/resource/3abf1383-c4e5-4c1a-8331-8434b17b6f10/download/credit_lic_202602.tsv
asic_credit_licensee,licensee,acl,384608,384608,QUINFIN PTY LTD,95146565200,BENDIGO,VIC,3550,2010-10-26,,APPR,-36.7590183,144.2826718,131.81,https://data.gov.au/data/dataset/fa0b0d71-b8b8-4af8-bc59-0b000ce0d5e4/resource/3abf1383-c4e5-4c1a-8331-8434b17b6f10/download/credit_lic_202602.tsv
asic_credit_licensee,licensee,acl,384614,384614,OVER FIFTY SENIORS EQUITY RELEASE PTY LTD,12095362388,MELBOURNE,VIC,3000,2010-11-18,,APPR,-37.8142454,144.9631732,0.07,https://data.gov.au/data/dataset/fa0b0d71-b8b8-4af8-bc59-0b000ce0d5e4/resource/3abf1383-c4e5-4c1a-8331-8434b17b6f10/download/credit_lic_202602.tsv
asic_credit_licensee,licensee,acl,384648,384648,A.C.N. 135 458 141 PTY LTD,135458141,MELBOURNE,VIC,3000,2010-11-11,,APPR,-37.8142454,144.9631732,0.07,https://data.gov.au/data/dataset/fa0b0d71-b8b8-4af8-bc59-0b000ce0d5e4/resource/3abf1383-c4e5-4c1a-8331-8434b17b6f10/download/credit_lic_202602.tsv
asic_credit_licensee,licensee,acl,384679,384679,REX GORELL FAMILY GROUP PTY LTD,94005549913,GEELONG,VIC,3220,2010-10-28,,APPR,-38.1493248,144.3598241,64.72,https://data.gov.au/data/dataset/fa0b0d71-b8b8-4af8-bc59-0b000ce0d5e4/resource/3abf1383-c4e5-4c1a-8331-8434b17b6f10/download/credit_lic_202602.tsv
asic_credit_licensee,licensee,acl,384723,384723,"BELEVSKI, GEORGE",96274032134,BUNDOORA,VIC,3083,2010-11-04,,APPR,-37.6982468,145.0596757,15.38,https://data.gov.au/data/dataset/fa0b0d71-b8b8-4af8-bc59-0b000ce0d5e4/resource/3abf1383-c4e5-4c1a-8331-8434b17b6f10/download/credit_lic_202602.tsv
asic_credit_licensee,licensee,acl,384730,384730,AROBCAM PTY LTD,118567865,MALVERN EAST,VIC,3145,2010-10-20,,APPR,-37.876835,145.0658739,11.44,https://data.gov.au/data/dataset/fa0b0d71-b8b8-4af8-bc59-0b000ce0d5e4/resource/3abf1383-c4e5-4c1a-8331-8434b17b6f10/download/credit_lic_202602.tsv
asic_credit_licensee,licensee,acl,384735,384735,M & N CORPORATE PTY LTD,112566426,MOUNT ELIZA,VIC,3930,2010-10-15,,APPR,-38.1837759,145.0892789,42.62,https://data.gov.au/data/dataset/fa0b0d71-b8b8-4af8-bc59-0b000ce0d5e4/resource/3abf1383-c4e5-4c1a-8331-8434b17b6f10/download/credit_lic_202602.tsv
asic_credit_licensee,licensee,acl,384736,384736,TURTLE BLUE PTY LTD,89144475810,MOUNT ELIZA,VIC,3930,2010-10-15,,APPR,-38.1837759,145.0892789,42.62,https://data.gov.au/data/dataset/fa0b0d71-b8b8-4af8-bc59-0b000ce0d5e4/resource/3abf1383-c4e5-4c1a-8331-8434b17b6f10/download/credit_lic_202602.tsv
asic_credit_licensee,licensee,acl,384771,384771,FOLIO FINANCE PTY. LTD.,57114602407,SOUTH YARRA,VIC,3141,2010-11-16,,APPR,-37.8377695,144.9918537,3.69,https://data.gov.au/data/dataset/fa0b0d71-b8b8-4af8-bc59-0b000ce0d5e4/resource/3abf1383-c4e5-4c1a-8331-8434b17b6f10/download/credit_lic_202602.tsv
asic_credit_licensee,licensee,acl,384913,384913,FUTURE INVESTMENT & FINANCE PTY LTD,12123650742,ESSENDON,VIC,3040,2010-11-11,,APPR,-37.7498293,144.9109062,8.45,https://data.gov.au/data/dataset/fa0b0d71-b8b8-4af8-bc59-0b000ce0d5e4/resource/3abf1383-c4e5-4c1a-8331-8434b17b6f10/download/credit_lic_202602.tsv
asic_credit_licensee,licensee,acl,384993,384993,SOUTHERN CROSS BROKER NETWORK PTY LTD,57096170080,MELBOURNE,VIC,3000,2010-10-28,,APPR,-37.8142454,144.9631732,0.07,https://data.gov.au/data/dataset/fa0b0d71-b8b8-4af8-bc59-0b000ce0d5e4/resource/3abf1383-c4e5-4c1a-8331-8434b17b6f10/download/credit_lic_202602.tsv
asic_credit_licensee,licensee,acl,385054,385054,NEWCO FINANCIAL SERVICES PTY LIMITED,90095713447,MELBOURNE,VIC,3004,2010-12-15,,APPR,-37.8142454,144.9631732,0.07,https://data.gov.au/data/dataset/fa0b0d71-b8b8-4af8-bc59-0b000ce0d5e4/resource/3abf1383-c4e5-4c1a-8331-8434b17b6f10/download/credit_lic_202602.tsv
asic_credit_licensee,licensee,acl,385074,385074,ARTHURMAC & CO PTY LTD,44114517752,CHELTENHAM,VIC,3192,2010-10-20,,APPR,-37.9670081,145.0546951,18.86,https://data.gov.au/data/dataset/fa0b0d71-b8b8-4af8-bc59-0b000ce0d5e4/resource/3abf1383-c4e5-4c1a-8331-8434b17b6f10/download/credit_lic_202602.tsv
asic_credit_licensee,licensee,acl,385141,385141,M. & C. O'BRIEN PTY LTD,51101545617,WARREN SOUTH,VIC,3805,2010-10-26,,APPR,-38.05439,145.3028513,40.06,https://data.gov.au/data/dataset/fa0b0d71-b8b8-4af8-bc59-0b000ce0d5e4/resource/3abf1383-c4e5-4c1a-8331-8434b17b6f10/download/credit_lic_202602.tsv
asic_credit_licensee,licensee,acl,385205,385205,HARVEY PENDER HOLDINGS PTY LTD,30121883403,CHELSEA,VIC,3196,2010-11-09,,APPR,-38.0497386,145.121407,29.70,https://data.gov.au/data/dataset/fa0b0d71-b8b8-4af8-bc59-0b000ce0d5e4/resource/3abf1383-c4e5-4c1a-8331-8434b17b6f10/download/credit_lic_202602.tsv
asic_credit_licensee,licensee,acl,385216,385216,BARNES CAPITAL PTY LTD,89121832675,BRIGHTON,VIC,3186,2010-12-08,,APPR,-37.9081962,144.9957991,10.90,https://data.gov.au/data/dataset/fa0b0d71-b8b8-4af8-bc59-0b000ce0d5e4/resource/3abf1383-c4e5-4c1a-8331-8434b17b6f10/download/credit_lic_202602.tsv
asic_credit_licensee,licensee,acl,385261,385261,INTUITIVE FINANCE PTY LTD,25103247758,SANDRINGHAM,VIC,3191,2010-11-04,,APPR,-37.9502592,145.0043868,15.62,https://data.gov.au/data/dataset/fa0b0d71-b8b8-4af8-bc59-0b000ce0d5e4/resource/3abf1383-c4e5-4c1a-8331-8434b17b6f10/download/credit_lic_202602.tsv
asic_credit_licensee,licensee,acl,385269,385269,KUDOS PROPERTY DEVELOPMENTS PTY LTD,28007299238,WATTLE GLEN,VIC,3096,2010-12-07,,APPR,-37.6659556,145.1813531,25.26,https://data.gov.au/data/dataset/fa0b0d71-b8b8-4af8-bc59-0b000ce0d5e4/resource/3abf1383-c4e5-4c1a-8331-8434b17b6f10/download/credit_lic_202602.tsv
asic_credit_licensee,licensee,acl,385273,385273,"ANAND, VIRENDRA",66305781849,BALACLAVA,VIC,3183,2010-11-25,,APPR,-37.86954435,144.993485979673,6.77,https://data.gov.au/data/dataset/fa0b0d71-b8b8-4af8-bc59-0b000ce0d5e4/resource/3abf1383-c4e5-4c1a-8331-8434b17b6f10/download/credit_lic_202602.tsv
asic_credit_licensee,licensee,acl,385280,385280,ALLPOINTS FINANCE PTY LTD,22120149135,BALWYN,VIC,3103,2010-10-22,,APPR,-37.8091737,145.0833678,10.58,https://data.gov.au/data/dataset/fa0b0d71-b8b8-4af8-bc59-0b000ce0d5e4/resource/3abf1383-c4e5-4c1a-8331-8434b17b6f10/download/credit_lic_202602.tsv
asic_credit_licensee,licensee,acl,385325,385325,SMARTLINE OPERATIONS PTY LIMITED,86086467727,RICHMOND,VIC,3121,2010-12-24,,APPR,-37.8203955,145.0025153,3.54,https://data.gov.au/data/dataset/fa0b0d71-b8b8-4af8-bc59-0b000ce0d5e4/resource/3abf1383-c4e5-4c1a-8331-8434b17b6f10/download/credit_lic_202602.tsv
asic_credit_licensee,licensee,acl,385346,385346,COLLARD INVESTMENTS (AUST) PTY LTD,74108855625,GEELONG,VIC,3220,2010-12-14,,APPR,-38.1493248,144.3598241,64.72,https://data.gov.au/data/dataset/fa0b0d71-b8b8-4af8-bc59-0b000ce0d5e4/resource/3abf1383-c4e5-4c1a-8331-8434b17b6f10/download/credit_lic_202602.tsv
asic_credit_licensee,licensee,acl,385369,385369,FIRST POINT GROUP PTY LTD,120001167,BALWYN,VIC,3103,2010-10-26,,APPR,-37.8091737,145.0833678,10.58,https://data.gov.au/data/dataset/fa0b0d71-b8b8-4af8-bc59-0b000ce0d5e4/resource/3abf1383-c4e5-4c1a-8331-8434b17b6f10/download/credit_lic_202602.tsv
asic_credit_licensee,licensee,acl,385395,385395,MILDURA FINANCE PTY LIMITED,28089538198,MILDURA,VIC,3500,2010-11-24,,APPR,-34.195274,142.1503146,475.22,https://data.gov.au/data/dataset/fa0b0d71-b8b8-4af8-bc59-0b000ce0d5e4/resource/3abf1383-c4e5-4c1a-8331-8434b17b6f10/download/credit_lic_202602.tsv
asic_credit_licensee,licensee,acl,385472,385472,MIOWERA GREEN PTY. LTD.,98100783677,HEIDELBERG HEIGHTS,VIC,3081,2010-11-24,,APPR,-37.7451831,145.0529194,10.96,https://data.gov.au/data/dataset/fa0b0d71-b8b8-4af8-bc59-0b000ce0d5e4/resource/3abf1383-c4e5-4c1a-8331-8434b17b6f10/download/credit_lic_202602.tsv
asic_credit_licensee,licensee,acl,385476,385476,THE TRUSTEE FOR MCP TRUST & THE TRUSTEE FOR THE GROUP TRUST,84301023850,SOUTH YARRA,VIC,3141,2011-01-14,,APPR,-37.8377695,144.9918537,3.69,https://data.gov.au/data/dataset/fa0b0d71-b8b8-4af8-bc59-0b000ce0d5e4/resource/3abf1383-c4e5-4c1a-8331-8434b17b6f10/download/credit_lic_202602.tsv
asic_credit_licensee,licensee,acl,385496,385496,"BURL, DAMIEN",94873068656,EDITHVALE,VIC,3196,2010-11-09,,APPR,-38.0365104,145.107552,27.84,https://data.gov.au/data/dataset/fa0b0d71-b8b8-4af8-bc59-0b000ce0d5e4/resource/3abf1383-c4e5-4c1a-8331-8434b17b6f10/download/credit_lic_202602.tsv
asic_credit_licensee,licensee,acl,385566,385566,PATTERSON FINANCE COMPANY PTY LTD,91142543137,ECHUCA,VIC,3564,2010-12-09,,APPR,-36.1281405,144.7516955,188.35,https://data.gov.au/data/dataset/fa0b0d71-b8b8-4af8-bc59-0b000ce0d5e4/resource/3abf1383-c4e5-4c1a-8331-8434b17b6f10/download/credit_lic_202602.tsv
asic_credit_licensee,licensee,acl,385597,385597,"GOYAL, PANKAJ",38270143010,BRIGHTON,VIC,3186,2010-11-04,,APPR,-37.9081962,144.9957991,10.90,https://data.gov.au/data/dataset/fa0b0d71-b8b8-4af8-bc59-0b000ce0d5e4/resource/3abf1383-c4e5-4c1a-8331-8434b17b6f10/download/credit_lic_202602.tsv
asic_credit_licensee,licensee,acl,385619,385619,PROFESSIONAL PARTNERS PTY LTD,109448115,MALVERN,VIC,3144,2010-11-04,,APPR,-37.8576088,145.0350666,7.99,https://data.gov.au/data/dataset/fa0b0d71-b8b8-4af8-bc59-0b000ce0d5e4/resource/3abf1383-c4e5-4c1a-8331-8434b17b6f10/download/credit_lic_202602.tsv
asic_credit_licensee,licensee,acl,385853,385853,"MCKENNA, GEOFFREY THOMAS",73732944243,HAWTHORN,VIC,3122,2010-11-01,,APPR,-37.8244246,145.0317207,6.15,https://data.gov.au/data/dataset/fa0b0d71-b8b8-4af8-bc59-0b000ce0d5e4/resource/3abf1383-c4e5-4c1a-8331-8434b17b6f10/download/credit_lic_202602.tsv
asic_credit_licensee,licensee,acl,385872,385872,MAINSTREAM CAPITAL CORPORATION PTY. LTD.,29106153619,CARNEGIE,VIC,3163,2010-11-10,,APPR,-37.88622945,145.058569545966,11.64,https://data.gov.au/data/dataset/fa0b0d71-b8b8-4af8-bc59-0b000ce0d5e4/resource/3abf1383-c4e5-4c1a-8331-8434b17b6f10/download/credit_lic_202602.tsv
asic_credit_licensee,licensee,acl,385873,385873,"TSIALTAS, ARGIRIOS HARRY",0,BRUNSWICK,VIC,3056,2010-11-12,,APPR,-37.7664715,144.9613103,5.24,https://data.gov.au/data/dataset/fa0b0d71-b8b8-4af8-bc59-0b000ce0d5e4/resource/3abf1383-c4e5-4c1a-8331-8434b17b6f10/download/credit_lic_202602.tsv
asic_credit_licensee,licensee,acl,385992,385992,MORTGAGE LINK AUSTRALIA PTY LTD,35090860058,ELSTERNWICK,VIC,3185,2010-11-15,,APPR,-37.88499375,145.001023086257,8.61,https://data.gov.au/data/dataset/fa0b0d71-b8b8-4af8-bc59-0b000ce0d5e4/resource/3abf1383-c4e5-4c1a-8331-8434b17b6f10/download/credit_lic_202602.tsv
asic_credit_licensee,licensee,acl,386297,386297,SACCASAN PTY LTD,125769164,CHELTENHAM,VIC,3192,2010-12-15,,APPR,-37.9670081,145.0546951,18.86,https://data.gov.au/data/dataset/fa0b0d71-b8b8-4af8-bc59-0b000ce0d5e4/resource/3abf1383-c4e5-4c1a-8331-8434b17b6f10/download/credit_lic_202602.tsv
asic_credit_licensee,licensee,acl,386407,386407,LIFESTYLE LOANS VIC PTY LTD,77005563100,NIDDRIE,VIC,3042,2010-11-24,,APPR,-37.7397699,144.8847881,10.71,https://data.gov.au/data/dataset/fa0b0d71-b8b8-4af8-bc59-0b000ce0d5e4/resource/3abf1383-c4e5-4c1a-8331-8434b17b6f10/download/credit_lic_202602.tsv
asic_credit_licensee,licensee,acl,386435,386435,NEDA BRADFORD & QUINN PTY LTD,98073263064,NOBLE PARK,VIC,3174,2010-12-07,,APPR,-37.96645965,145.176114726163,25.27,https://data.gov.au/data/dataset/fa0b0d71-b8b8-4af8-bc59-0b000ce0d5e4/resource/3abf1383-c4e5-4c1a-8331-8434b17b6f10/download/credit_lic_202602.tsv
asic_credit_licensee,licensee,acl,386616,386616,AMB AUSTRALIA PTY LTD,74108815050,CARLTON NORTH,VIC,3054,2010-12-15,,APPR,-37.7845585,144.9728553,3.34,https://data.gov.au/data/dataset/fa0b0d71-b8b8-4af8-bc59-0b000ce0d5e4/resource/3abf1383-c4e5-4c1a-8331-8434b17b6f10/download/credit_lic_202602.tsv
asic_credit_licensee,licensee,acl,386623,386623,PREMIUM FINANCIAL SERVICES GROUP PTY LTD,99081493996,MELBOURNE,VIC,3000,2010-11-23,,APPR,-37.8142454,144.9631732,0.07,https://data.gov.au/data/dataset/fa0b0d71-b8b8-4af8-bc59-0b000ce0d5e4/resource/3abf1383-c4e5-4c1a-8331-8434b17b6f10/download/credit_lic_202602.tsv
asic_credit_licensee,licensee,acl,386668,386668,TRIDENT FINANCE PTY LTD,34103164736,PRESTON,VIC,3072,2010-11-18,,APPR,-37.7418658,145.0078205,8.89,https://data.gov.au/data/dataset/fa0b0d71-b8b8-4af8-bc59-0b000ce0d5e4/resource/3abf1383-c4e5-4c1a-8331-8434b17b6f10/download/credit_lic_202602.tsv
asic_credit_licensee,licensee,acl,386721,386721,LYGON & EDWARD PTY LTD,110407657,BURNLEY,VIC,3121,2011-02-07,,APPR,-37.82762235,145.008091196346,4.25,https://data.gov.au/data/dataset/fa0b0d71-b8b8-4af8-bc59-0b000ce0d5e4/resource/3abf1383-c4e5-4c1a-8331-8434b17b6f10/download/credit_lic_202602.tsv
asic_credit_licensee,licensee,acl,386734,386734,GRANGE FINANCE (AUSTRALIA) PTY LTD,83081377657,CAULFIELD NORTH,VIC,3161,2011-01-01,,APPR,-37.870828,145.0218005,8.19,https://data.gov.au/data/dataset/fa0b0d71-b8b8-4af8-bc59-0b000ce0d5e4/resource/3abf1383-c4e5-4c1a-8331-8434b17b6f10/download/credit_lic_202602.tsv
asic_credit_licensee,licensee,acl,386747,386747,"DANG, LIEM THANH",58342657901,ALBANS,VIC,3021,2010-11-25,,APPR,-37.7445766,144.799702346884,16.28,https://data.gov.au/data/dataset/fa0b0d71-b8b8-4af8-bc59-0b000ce0d5e4/resource/3abf1383-c4e5-4c1a-8331-8434b17b6f10/download/credit_lic_202602.tsv
asic_credit_licensee,licensee,acl,386760,386760,AUSTRALIAN SENIORS FINANCE PTY LIMITED,16108875636,MELBOURNE,VIC,3000,2011-02-10,,APPR,-37.8142454,144.9631732,0.07,https://data.gov.au/data/dataset/fa0b0d71-b8b8-4af8-bc59-0b000ce0d5e4/resource/3abf1383-c4e5-4c1a-8331-8434b17b6f10/download/credit_lic_202602.tsv
asic_credit_licensee,licensee,acl,386781,386781,ASF CUSTODIANS PTY LTD,49106822780,MELBOURNE,VIC,3000,2011-02-10,,APPR,-37.8142454,144.9631732,0.07,https://data.gov.au/data/dataset/fa0b0d71-b8b8-4af8-bc59-0b000ce0d5e4/resource/3abf1383-c4e5-4c1a-8331-8434b17b6f10/download/credit_lic_202602.tsv
asic_credit_licensee,licensee,acl,386792,386792,NETWORK CAPITAL CONSULTANTS PTY LTD,54006851350,PARKVILLE,VIC,3052,2010-12-07,,APPR,-37.7871148,144.9515533,3.11,https://data.gov.au/data/dataset/fa0b0d71-b8b8-4af8-bc59-0b000ce0d5e4/resource/3abf1383-c4e5-4c1a-8331-8434b17b6f10/download/credit_lic_202602.tsv
asic_credit_licensee,licensee,acl,386857,386857,D.A.A.S. INVESTMENTS PTY LTD,16099523387,CHELTENHAM,VIC,3192,2010-11-17,,APPR,-37.9670081,145.0546951,18.86,https://data.gov.au/data/dataset/fa0b0d71-b8b8-4af8-bc59-0b000ce0d5e4/resource/3abf1383-c4e5-4c1a-8331-8434b17b6f10/download/credit_lic_202602.tsv
asic_credit_licensee,licensee,acl,386874,386874,DUNCORP FINANCIAL PTY. LTD.,83103780114,WONTHAGGI,VIC,3995,2010-11-10,,APPR,-38.6043664,145.5913433,103.66,https://data.gov.au/data/dataset/fa0b0d71-b8b8-4af8-bc59-0b000ce0d5e4/resource/3abf1383-c4e5-4c1a-8331-8434b17b6f10/download/credit_lic_202602.tsv
asic_credit_licensee,licensee,acl,386954,386954,FUNDSNATIONAL PTY LTD,41099879991,SOUTH MELBOURNE,VIC,3205,2010-11-26,,APPR,-37.83344,144.9570533,2.27,https://data.gov.au/data/dataset/fa0b0d71-b8b8-4af8-bc59-0b000ce0d5e4/resource/3abf1383-c4e5-4c1a-8331-8434b17b6f10/download/credit_lic_202602.tsv
asic_credit_licensee,licensee,acl,386995,386995,FIG FINANCE PTY LTD,138175149,PARKDALE,VIC,3195,2010-11-08,,APPR,-37.9930593,145.0763034,22.29,https://data.gov.au/data/dataset/fa0b0d71-b8b8-4af8-bc59-0b000ce0d5e4/resource/3abf1383-c4e5-4c1a-8331-8434b17b6f10/download/credit_lic_202602.tsv
asic_credit_licensee,licensee,acl,387004,387004,FINANCE INCENTIVES PTY LTD,83131121269,BRIGHTON,VIC,3186,2010-11-08,,APPR,-37.9081962,144.9957991,10.90,https://data.gov.au/data/dataset/fa0b0d71-b8b8-4af8-bc59-0b000ce0d5e4/resource/3abf1383-c4e5-4c1a-8331-8434b17b6f10/download/credit_lic_202602.tsv
asic_credit_licensee,licensee,acl,387036,387036,MELBOURNE FINANCE BROKING PTY. LTD.,13065069570,HAWTHORN,VIC,3122,2010-11-15,,APPR,-37.8244246,145.0317207,6.15,https://data.gov.au/data/dataset/fa0b0d71-b8b8-4af8-bc59-0b000ce0d5e4/resource/3abf1383-c4e5-4c1a-8331-8434b17b6f10/download/credit_lic_202602.tsv
asic_credit_licensee,licensee,acl,387073,387073,VILNO PTY. LTD.,121382527,CAULFIELD SOUTH,VIC,3162,2011-02-14,,APPR,-37.894699,145.0249323,10.53,https://data.gov.au/data/dataset/fa0b0d71-b8b8-4af8-bc59-0b000ce0d5e4/resource/3abf1383-c4e5-4c1a-8331-8434b17b6f10/download/credit_lic_202602.tsv
asic_credit_licensee,licensee,acl,387195,387195,ANDINE FINANCIAL GROUP PTY LTD,66087907391,SOUTH YARRA,VIC,3141,2010-12-03,,APPR,-37.8377695,144.9918537,3.69,https://data.gov.au/data/dataset/fa0b0d71-b8b8-4af8-bc59-0b000ce0d5e4/resource/3abf1383-c4e5-4c1a-8331-8434b17b6f10/download/credit_lic_202602.tsv
asic_credit_licensee,licensee,acl,387205,387205,"LIN, WEI CHANG",56215173833,PARKDALE,VIC,3195,2010-12-01,,APPR,-37.9930593,145.0763034,22.29,https://data.gov.au/data/dataset/fa0b0d71-b8b8-4af8-bc59-0b000ce0d5e4/resource/3abf1383-c4e5-4c1a-8331-8434b17b6f10/download/credit_lic_202602.tsv
asic_credit_licensee,licensee,acl,387220,387220,"CHEN, CHRISTIANE",33238819919,DONVALE,VIC,3111,2010-11-12,,APPR,-37.7898094,145.1914915,20.24,https://data.gov.au/data/dataset/fa0b0d71-b8b8-4af8-bc59-0b000ce0d5e4/resource/3abf1383-c4e5-4c1a-8331-8434b17b6f10/download/credit_lic_202602.tsv
asic_credit_licensee,licensee,acl,387231,387231,EAST COAST FINANCIAL PTY LTD,35135025286,CAMBERWELL,VIC,3124,2011-01-01,,APPR,-37.8384623,145.0740767,10.13,https://data.gov.au/data/dataset/fa0b0d71-b8b8-4af8-bc59-0b000ce0d5e4/resource/3abf1383-c4e5-4c1a-8331-8434b17b6f10/download/credit_lic_202602.tsv
asic_credit_licensee,licensee,acl,387238,387238,ONE 80 FINANCIAL SERVICES PTY LTD,14113683328,SOUTH MELBOURNE,VIC,3205,2010-12-17,,APPR,-37.83344,144.9570533,2.27,https://data.gov.au/data/dataset/fa0b0d71-b8b8-4af8-bc59-0b000ce0d5e4/resource/3abf1383-c4e5-4c1a-8331-8434b17b6f10/download/credit_lic_202602.tsv
asic_credit_licensee,licensee,acl,387277,387277,CHOCOLATE HOME LOANS PTY LTD,33103576665,MELBOURNE,VIC,3004,2010-12-03,,APPR,-37.8142454,144.9631732,0.07,https://data.gov.au/data/dataset/fa0b0d71-b8b8-4af8-bc59-0b000ce0d5e4/resource/3abf1383-c4e5-4c1a-8331-8434b17b6f10/download/credit_lic_202602.tsv
asic_credit_licensee,licensee,acl,387307,387307,OXFORD WEALTH MANAGEMENT PTY LTD,136119698,MELBOURNE,VIC,3000,2010-12-09,,APPR,-37.8142454,144.9631732,0.07,https://data.gov.au/data/dataset/fa0b0d71-b8b8-4af8-bc59-0b000ce0d5e4/resource/3abf1383-c4e5-4c1a-8331-8434b17b6f10/download/credit_lic_202602.tsv
asic_credit_licensee,licensee,acl,387310,387310,TEAM AUSTRALIA MORTGAGE SOLUTIONS PTY. LTD.,70095338775,CARNEGIE,VIC,3163,2010-11-30,,APPR,-37.88622945,145.058569545966,11.64,https://data.gov.au/data/dataset/fa0b0d71-b8b8-4af8-bc59-0b000ce0d5e4/resource/3abf1383-c4e5-4c1a-8331-8434b17b6f10/download/credit_lic_202602.tsv
asic_credit_licensee,licensee,acl,387343,387343,"CHESTER, JACK",0,KILDA EAST,VIC,3183,2010-12-20,,APPR,-37.8668218,145.0021657,6.84,https://data.gov.au/data/dataset/fa0b0d71-b8b8-4af8-bc59-0b000ce0d5e4/resource/3abf1383-c4e5-4c1a-8331-8434b17b6f10/download/credit_lic_202602.tsv
asic_credit_licensee,licensee,acl,387381,387381,BTB WEALTH PTY LTD,130104531,RINGWOOD,VIC,3134,2010-12-14,,APPR,-37.8158726,145.22911125106,23.37,https://data.gov.au/data/dataset/fa0b0d71-b8b8-4af8-bc59-0b000ce0d5e4/resource/3abf1383-c4e5-4c1a-8331-8434b17b6f10/download/credit_lic_202602.tsv
asic_credit_licensee,licensee,acl,387382,387382,MCDONALD FINANCE GROUP PTY LTD,33105998150,WHEELERS HILL,VIC,3150,2010-11-17,,APPR,-37.9103266,145.1895175,22.60,https://data.gov.au/data/dataset/fa0b0d71-b8b8-4af8-bc59-0b000ce0d5e4/resource/3abf1383-c4e5-4c1a-8331-8434b17b6f10/download/credit_lic_202602.tsv
asic_credit_licensee,licensee,acl,387402,387402,MORTGAGE STAR SECURITIES PTY. LTD.,24050195189,KEW,VIC,3101,2011-01-10,,APPR,-37.8033586,145.0333285,6.27,https://data.gov.au/data/dataset/fa0b0d71-b8b8-4af8-bc59-0b000ce0d5e4/resource/3abf1383-c4e5-4c1a-8331-8434b17b6f10/download/credit_lic_202602.tsv
asic_credit_licensee,licensee,acl,387511,387511,FINANCIAL LENDING SERVICES PTY LTD,121670728,BRUNSWICK,VIC,3056,2011-01-04,,APPR,-37.7664715,144.9613103,5.24,https://data.gov.au/data/dataset/fa0b0d71-b8b8-4af8-bc59-0b000ce0d5e4/resource/3abf1383-c4e5-4c1a-8331-8434b17b6f10/download/credit_lic_202602.tsv
asic_credit_licensee,licensee,acl,387514,387514,ZURICH CAPITAL & FINANCE PTY LTD,11147034697,MELBOURNE,VIC,3000,2010-12-08,,APPR,-37.8142454,144.9631732,0.07,https://data.gov.au/data/dataset/fa0b0d71-b8b8-4af8-bc59-0b000ce0d5e4/resource/3abf1383-c4e5-4c1a-8331-8434b17b6f10/download/credit_lic_202602.tsv
asic_credit_licensee,licensee,acl,387519,387519,ALLIANCE FINANCE AND PROPERTY PTY LTD,128507933,MELBOURNE,VIC,3207,2010-11-23,,APPR,-37.8142454,144.9631732,0.07,https://data.gov.au/data/dataset/fa0b0d71-b8b8-4af8-bc59-0b000ce0d5e4/resource/3abf1383-c4e5-4c1a-8331-8434b17b6f10/download/credit_lic_202602.tsv
asic_credit_licensee,licensee,acl,387533,387533,CASABLANCA FINANCE PTY LTD,92104594210,GREENVALE,VIC,3059,2010-11-25,,APPR,-37.6377329,144.8810975,20.84,https://data.gov.au/data/dataset/fa0b0d71-b8b8-4af8-bc59-0b000ce0d5e4/resource/3abf1383-c4e5-4c1a-8331-8434b17b6f10/download/credit_lic_202602.tsv
asic_credit_licensee,licensee,acl,387535,387535,EUREKA CAPITAL PTY. LTD.,83125606822,MALVERN,VIC,3144,2010-12-03,,APPR,-37.8576088,145.0350666,7.99,https://data.gov.au/data/dataset/fa0b0d71-b8b8-4af8-bc59-0b000ce0d5e4/resource/3abf1383-c4e5-4c1a-8331-8434b17b6f10/download/credit_lic_202602.tsv
asic_credit_licensee,licensee,acl,387542,387542,BROOKSIDE HOLDINGS PTY LTD,62094348919,STRATHMORE,VIC,3041,2010-12-07,,APPR,-37.7333202,144.9182433,9.76,https://data.gov.au/data/dataset/fa0b0d71-b8b8-4af8-bc59-0b000ce0d5e4/resource/3abf1383-c4e5-4c1a-8331-8434b17b6f10/download/credit_lic_202602.tsv
asic_credit_licensee,licensee,acl,387553,387553,AMG CORPORATE PTY. LTD.,43064497909,SOUTH MELBOURNE,VIC,3205,2010-12-21,,APPR,-37.83344,144.9570533,2.27,https://data.gov.au/data/dataset/fa0b0d71-b8b8-4af8-bc59-0b000ce0d5e4/resource/3abf1383-c4e5-4c1a-8331-8434b17b6f10/download/credit_lic_202602.tsv
asic_credit_licensee,licensee,acl,387585,387585,KLEAR PICTURE PTY LTD,32112744171,MELBOURNE,VIC,3000,2010-12-20,,APPR,-37.8142454,144.9631732,0.07,https://data.gov.au/data/dataset/fa0b0d71-b8b8-4af8-bc59-0b000ce0d5e4/resource/3abf1383-c4e5-4c1a-8331-8434b17b6f10/download/credit_lic_202602.tsv
asic_credit_licensee,licensee,acl,387596,387596,QUINSTELLA GROUP PTY LTD,116570515,BLACKBURN,VIC,3130,2010-12-13,,APPR,-37.82013725,145.150049618224,16.44,https://data.gov.au/data/dataset/fa0b0d71-b8b8-4af8-bc59-0b000ce0d5e4/resource/3abf1383-c4e5-4c1a-8331-8434b17b6f10/download/credit_lic_202602.tsv
asic_credit_licensee,licensee,acl,387616,387616,NATIONAL MORTGAGE SERVICES PTY. LTD.,67056386666,MALVERN,VIC,3144,2010-12-03,,APPR,-37.8576088,145.0350666,7.99,https://data.gov.au/data/dataset/fa0b0d71-b8b8-4af8-bc59-0b000ce0d5e4/resource/3abf1383-c4e5-4c1a-8331-8434b17b6f10/download/credit_lic_202602.tsv
asic_credit_licensee,licensee,acl,387618,387618,MINFIN AUSTRALIA PTY. LTD.,60104684424,CAULFIELD SOUTH,VIC,3162,2010-12-02,,APPR,-37.894699,145.0249323,10.53,https://data.gov.au/data/dataset/fa0b0d71-b8b8-4af8-bc59-0b000ce0d5e4/resource/3abf1383-c4e5-4c1a-8331-8434b17b6f10/download/credit_lic_202602.tsv
asic_credit_licensee,licensee,acl,387649,387649,FRASER JEFFREY FINANCE PTY. LTD.,26086859967,WANGARATTA,VIC,3678,2010-12-23,,APPR,-36.356434,146.3228311,201.99,https://data.gov.au/data/dataset/fa0b0d71-b8b8-4af8-bc59-0b000ce0d5e4/resource/3abf1383-c4e5-4c1a-8331-8434b17b6f10/download/credit_lic_202602.tsv
asic_credit_licensee,licensee,acl,387666,387666,CRUCIS PTY. LTD.,45102849776,MELBOURNE,VIC,3000,2011-03-30,,APPR,-37.8142454,144.9631732,0.07,https://data.gov.au/data/dataset/fa0b0d71-b8b8-4af8-bc59-0b000ce0d5e4/resource/3abf1383-c4e5-4c1a-8331-8434b17b6f10/download/credit_lic_202602.tsv
asic_credit_licensee,licensee,acl,387727,387727,"CHENG, KENNETH ZHI-KEN",24305233183,MURRUMBEENA,VIC,3163,2010-12-01,,APPR,-37.89031495,145.067597181292,12.53,https://data.gov.au/data/dataset/fa0b0d71-b8b8-4af8-bc59-0b000ce0d5e4/resource/3abf1383-c4e5-4c1a-8331-8434b17b6f10/download/credit_lic_202602.tsv
asic_credit_licensee,licensee,acl,387734,387734,NEXUS PARTNERS PTY LTD,56128705340,JAN JUC,VIC,3228,2010-11-22,,APPR,-38.3445598,144.2951731,83.09,https://data.gov.au/data/dataset/fa0b0d71-b8b8-4af8-bc59-0b000ce0d5e4/resource/3abf1383-c4e5-4c1a-8331-8434b17b6f10/download/credit_lic_202602.tsv
asic_credit_licensee,licensee,acl,387784,387784,MONOPOLY FINANCE PTY LTD,14144587717,ESSENDON,VIC,3040,2010-12-22,,APPR,-37.7498293,144.9109062,8.45,https://data.gov.au/data/dataset/fa0b0d71-b8b8-4af8-bc59-0b000ce0d5e4/resource/3abf1383-c4e5-4c1a-8331-8434b17b6f10/download/credit_lic_202602.tsv
asic_credit_licensee,licensee,acl,387854,387854,CREDIT CORP ACCEPTANCE PTY LIMITED,58119211317,MELBOURNE,VIC,3001,2010-12-20,,APPR,-37.8142454,144.9631732,0.07,https://data.gov.au/data/dataset/fa0b0d71-b8b8-4af8-bc59-0b000ce0d5e4/resource/3abf1383-c4e5-4c1a-8331-8434b17b6f10/download/credit_lic_202602.tsv
asic_credit_licensee,licensee,acl,387908,387908,"CURTIS, DOMINIC JOHN",24810185504,TEMPLESTOWE,VIC,3106,2011-02-15,,APPR,-37.7540588,145.1486152,17.60,https://data.gov.au/data/dataset/fa0b0d71-b8b8-4af8-bc59-0b000ce0d5e4/resource/3abf1383-c4e5-4c1a-8331-8434b17b6f10/download/credit_lic_202602.tsv
asic_credit_licensee,licensee,acl,387930,387930,REGAL FINANCE PTY LTD,26007155848,CARNEGIE,VIC,3163,2011-01-20,,APPR,-37.88622945,145.058569545966,11.64,https://data.gov.au/data/dataset/fa0b0d71-b8b8-4af8-bc59-0b000ce0d5e4/resource/3abf1383-c4e5-4c1a-8331-8434b17b6f10/download/credit_lic_202602.tsv
asic_credit_licensee,licensee,acl,387979,387979,"LOH, CATHERINE",78845688581,POINT COOK,VIC,3030,2010-12-02,,APPR,-37.9064862,144.7533059,21.12,https://data.gov.au/data/dataset/fa0b0d71-b8b8-4af8-bc59-0b000ce0d5e4/resource/3abf1383-c4e5-4c1a-8331-8434b17b6f10/download/credit_lic_202602.tsv
asic_credit_licensee,licensee,acl,388003,388003,SME MORTGAGE GROUP PTY LTD,81508983,SOUTH YARRA,VIC,3141,2010-12-10,,APPR,-37.8377695,144.9918537,3.69,https://data.gov.au/data/dataset/fa0b0d71-b8b8-4af8-bc59-0b000ce0d5e4/resource/3abf1383-c4e5-4c1a-8331-8434b17b6f10/download/credit_lic_202602.tsv
asic_credit_licensee,licensee,acl,388005,388005,LOAN SAVER CONSULTANCY PTY LTD,89070164331,SCORESBY,VIC,3179,2010-12-14,,APPR,-37.9025786,145.2183066,24.49,https://data.gov.au/data/dataset/fa0b0d71-b8b8-4af8-bc59-0b000ce0d5e4/resource/3abf1383-c4e5-4c1a-8331-8434b17b6f10/download/credit_lic_202602.tsv
asic_credit_licensee,licensee,acl,388041,388041,THE PRACTICE FINANCIAL SOLUTIONS PTY LTD,35116424009,PARKVILLE,VIC,3052,2010-12-20,,APPR,-37.7871148,144.9515533,3.11,https://data.gov.au/data/dataset/fa0b0d71-b8b8-4af8-bc59-0b000ce0d5e4/resource/3abf1383-c4e5-4c1a-8331-8434b17b6f10/download/credit_lic_202602.tsv
asic_credit_licensee,licensee,acl,388090,388090,SMART MOVE HOME LOANS PTY LTD,77104755839,MELBOURNE,VIC,3000,2010-11-23,,APPR,-37.8142454,144.9631732,0.07,https://data.gov.au/data/dataset/fa0b0d71-b8b8-4af8-bc59-0b000ce0d5e4/resource/3abf1383-c4e5-4c1a-8331-8434b17b6f10/download/credit_lic_202602.tsv
asic_credit_licensee,licensee,acl,388107,388107,BLUEHIVE FINANCIAL SERVICES PTY LTD,80103058822,BALWYN NORTH,VIC,3104,2010-11-26,,APPR,-37.7919518,145.0842372,10.91,https://data.gov.au/data/dataset/fa0b0d71-b8b8-4af8-bc59-0b000ce0d5e4/resource/3abf1383-c4e5-4c1a-8331-8434b17b6f10/download/credit_lic_202602.tsv
asic_credit_licensee,licensee,acl,388113,388113,"SUN, MEIZHEN",32307244929,RINGWOOD,VIC,3134,2010-12-08,,APPR,-37.8158726,145.22911125106,23.37,https://data.gov.au/data/dataset/fa0b0d71-b8b8-4af8-bc59-0b000ce0d5e4/resource/3abf1383-c4e5-4c1a-8331-8434b17b6f10/download/credit_lic_202602.tsv
asic_credit_licensee,licensee,acl,388128,388128,"MODELSKI, WITOLD",20875194493,ESSENDON,VIC,3040,2010-12-09,,APPR,-37.7498293,144.9109062,8.45,https://data.gov.au/data/dataset/fa0b0d71-b8b8-4af8-bc59-0b000ce0d5e4/resource/3abf1383-c4e5-4c1a-8331-8434b17b6f10/download/credit_lic_202602.tsv
asic_credit_licensee,licensee,acl,388133,388133,SECURE FUNDING PTY LTD,25081982872,MELBOURNE,VIC,3000,2011-02-18,,APPR,-37.8142454,144.9631732,0.07,https://data.gov.au/data/dataset/fa0b0d71-b8b8-4af8-bc59-0b000ce0d5e4/resource/3abf1383-c4e5-4c1a-8331-8434b17b6f10/download/credit_lic_202602.tsv
asic_credit_licensee,licensee,acl,388141,388141,MORTGAGE FINANCE SOLUTIONS PTY. LTD.,23104434399,WODONGA,VIC,3690,2010-12-13,,APPR,-36.1205539,146.8880837,254.33,https://data.gov.au/data/dataset/fa0b0d71-b8b8-4af8-bc59-0b000ce0d5e4/resource/3abf1383-c4e5-4c1a-8331-8434b17b6f10/download/credit_lic_202602.tsv
asic_credit_licensee,licensee,acl,388143,388143,JINGLE FINANCE PTY LTD,18132485066,RINGWOOD,VIC,3134,2010-12-23,,APPR,-37.8158726,145.22911125106,23.37,https://data.gov.au/data/dataset/fa0b0d71-b8b8-4af8-bc59-0b000ce0d5e4/resource/3abf1383-c4e5-4c1a-8331-8434b17b6f10/download/credit_lic_202602.tsv
asic_credit_licensee,licensee,acl,388154,388154,CAGOOTS PTY. LTD.,69120547051,DROMANA,VIC,3936,2010-12-14,,APPR,-38.3418285,144.9655838,58.74,https://data.gov.au/data/dataset/fa0b0d71-b8b8-4af8-bc59-0b000ce0d5e4/resource/3abf1383-c4e5-4c1a-8331-8434b17b6f10/download/credit_lic_202602.tsv
asic_credit_licensee,licensee,acl,388159,388159,LYONS FINANCIAL SERVICES PTY LTD,36086145495,PRESTON,VIC,3072,2010-12-14,,APPR,-37.7418658,145.0078205,8.89,https://data.gov.au/data/dataset/fa0b0d71-b8b8-4af8-bc59-0b000ce0d5e4/resource/3abf1383-c4e5-4c1a-8331-8434b17b6f10/download/credit_lic_202602.tsv
asic_credit_licensee,licensee,acl,388207,388207,PROFILE MORTGAGE CENTRE PTY. LTD.,30090483391,HAWTHORN EAST,VIC,3123,2010-11-25,,APPR,-37.8313785,145.0499797,7.88,https://data.gov.au/data/dataset/fa0b0d71-b8b8-4af8-bc59-0b000ce0d5e4/resource/3abf1383-c4e5-4c1a-8331-8434b17b6f10/download/credit_lic_202602.tsv
asic_credit_licensee,licensee,acl,388254,388254,SABONA PTY. LTD.,13107400073,PARKDALE,VIC,3195,2010-12-09,,APPR,-37.9930593,145.0763034,22.29,https://data.gov.au/data/dataset/fa0b0d71-b8b8-4af8-bc59-0b000ce0d5e4/resource/3abf1383-c4e5-4c1a-8331-8434b17b6f10/download/credit_lic_202602.tsv
asic_credit_licensee,licensee,acl,388292,388292,SIRKAM PTY LTD,30005850082,TEMPLESTOWE LOWER,VIC,3107,2010-12-03,,APPR,-37.7638749,145.1122762,14.23,https://data.gov.au/data/dataset/fa0b0d71-b8b8-4af8-bc59-0b000ce0d5e4/resource/3abf1383-c4e5-4c1a-8331-8434b17b6f10/download/credit_lic_202602.tsv
asic_credit_licensee,licensee,acl,388324,388324,ACTION FINANCIAL PTY LTD,97363794,KEALBA,VIC,3021,2011-01-25,,APPR,-37.7371074,144.8282988,14.58,https://data.gov.au/data/dataset/fa0b0d71-b8b8-4af8-bc59-0b000ce0d5e4/resource/3abf1383-c4e5-4c1a-8331-8434b17b6f10/download/credit_lic_202602.tsv
asic_credit_licensee,licensee,acl,388349,388349,WOMBAT LOANS PTY LTD,37128471170,KILMORE,VIC,3764,2010-12-15,,APPR,-37.2922688,144.9510311,57.98,https://data.gov.au/data/dataset/fa0b0d71-b8b8-4af8-bc59-0b000ce0d5e4/resource/3abf1383-c4e5-4c1a-8331-8434b17b6f10/download/credit_lic_202602.tsv
asic_credit_licensee,licensee,acl,388395,388395,PROMED FINANCE AUSTRALIA LIMITED,42109517688,MELBOURNE,VIC,3004,2011-01-07,,APPR,-37.8142454,144.9631732,0.07,https://data.gov.au/data/dataset/fa0b0d71-b8b8-4af8-bc59-0b000ce0d5e4/resource/3abf1383-c4e5-4c1a-8331-8434b17b6f10/download/credit_lic_202602.tsv
asic_credit_licensee,licensee,acl,388397,388397,CAPITAL FINANCE SOLUTIONS PTY LIMITED,73127307340,SOUTH MELBOURNE,VIC,3205,2011-01-24,,APPR,-37.83344,144.9570533,2.27,https://data.gov.au/data/dataset/fa0b0d71-b8b8-4af8-bc59-0b000ce0d5e4/resource/3abf1383-c4e5-4c1a-8331-8434b17b6f10/download/credit_lic_202602.tsv
asic_credit_licensee,licensee,acl,388420,388420,"D'AVOINE, BRUNO F",31193694983,MILL PARK,VIC,3082,2010-12-17,,APPR,-37.6641334,145.0642681,18.85,https://data.gov.au/data/dataset/fa0b0d71-b8b8-4af8-bc59-0b000ce0d5e4/resource/3abf1383-c4e5-4c1a-8331-8434b17b6f10/download/credit_lic_202602.tsv
asic_credit_licensee,licensee,acl,388455,388455,EMPIRE FINANCIAL MANAGEMENT GROUP PTY LTD,80111763967,HAWTHORN EAST,VIC,3123,2010-12-09,,APPR,-37.8313785,145.0499797,7.88,https://data.gov.au/data/dataset/fa0b0d71-b8b8-4af8-bc59-0b000ce0d5e4/resource/3abf1383-c4e5-4c1a-8331-8434b17b6f10/download/credit_lic_202602.tsv
asic_credit_licensee,licensee,acl,388463,388463,FREEDOM HOME LOANS PTY LTD,82095834549,BALLARAT NORTH,VIC,3350,2010-12-02,,APPR,-37.5372175,143.864728319163,101.43,https://data.gov.au/data/dataset/fa0b0d71-b8b8-4af8-bc59-0b000ce0d5e4/resource/3abf1383-c4e5-4c1a-8331-8434b17b6f10/download/credit_lic_202602.tsv
asic_credit_licensee,licensee,acl,388522,388522,BUTTERFLY FINANCE PTY. LTD.,143752505,KILDA,VIC,3182,2011-02-17,,APPR,-37.8638261,144.981637,5.82,https://data.gov.au/data/dataset/fa0b0d71-b8b8-4af8-bc59-0b000ce0d5e4/resource/3abf1383-c4e5-4c1a-8331-8434b17b6f10/download/credit_lic_202602.tsv
asic_credit_licensee,licensee,acl,388577,388577,SURF CITY FINANCE PTY. LTD.,130215422,TORQUAY,VIC,3228,2011-01-04,,APPR,-38.3266551,144.3134076,80.56,https://data.gov.au/data/dataset/fa0b0d71-b8b8-4af8-bc59-0b000ce0d5e4/resource/3abf1383-c4e5-4c1a-8331-8434b17b6f10/download/credit_lic_202602.tsv
asic_credit_licensee,licensee,acl,388600,388600,LENDING SOLUTIONS GROUP PTY LTD,108583973,SOUTH MELBOURNE,VIC,3205,2010-12-15,,APPR,-37.83344,144.9570533,2.27,https://data.gov.au/data/dataset/fa0b0d71-b8b8-4af8-bc59-0b000ce0d5e4/resource/3abf1383-c4e5-4c1a-8331-8434b17b6f10/download/credit_lic_202602.tsv
asic_credit_licensee,licensee,acl,388601,388601,GOLDEN BRIDGE ENTERPRISES (AUST) PTY LTD,92112483226,MELBOURNE,VIC,3000,2011-06-22,,APPR,-37.8142454,144.9631732,0.07,https://data.gov.au/data/dataset/fa0b0d71-b8b8-4af8-bc59-0b000ce0d5e4/resource/3abf1383-c4e5-4c1a-8331-8434b17b6f10/download/credit_lic_202602.tsv
asic_credit_licensee,licensee,acl,388674,388674,GREMARC PTY LTD,15134548128,MOUNT WAVERLEY,VIC,3149,2010-12-22,,APPR,-37.8752637,145.1281258,16.03,https://data.gov.au/data/dataset/fa0b0d71-b8b8-4af8-bc59-0b000ce0d5e4/resource/3abf1383-c4e5-4c1a-8331-8434b17b6f10/download/credit_lic_202602.tsv
asic_credit_licensee,licensee,acl,388676,388676,DELBRIDGE FINANCIAL SERVICES PTY LTD,106248944,FITZROY NORTH,VIC,3068,2011-02-01,,APPR,-37.7833316,144.9837074,3.82,https://data.gov.au/data/dataset/fa0b0d71-b8b8-4af8-bc59-0b000ce0d5e4/resource/3abf1383-c4e5-4c1a-8331-8434b17b6f10/download/credit_lic_202602.tsv
asic_credit_licensee,licensee,acl,388750,388750,EXTREME ASSOCIATES PTY LTD,42113921583,TRAVANCORE,VIC,3032,2010-12-03,,APPR,-37.7807553,144.935503,4.38,https://data.gov.au/data/dataset/fa0b0d71-b8b8-4af8-bc59-0b000ce0d5e4/resource/3abf1383-c4e5-4c1a-8331-8434b17b6f10/download/credit_lic_202602.tsv
asic_credit_licensee,licensee,acl,388772,388772,ASH FINANCIAL SERVICES PTY. LTD.,69140893527,CRANBOURNE WEST,VIC,3977,2010-12-21,,APPR,-38.102241,145.2517182,40.87,https://data.gov.au/data/dataset/fa0b0d71-b8b8-4af8-bc59-0b000ce0d5e4/resource/3abf1383-c4e5-4c1a-8331-8434b17b6f10/download/credit_lic_202602.tsv
asic_credit_licensee,licensee,acl,388783,388783,PRO WEALTH FINANCE PTY. LTD.,15130552760,MALVERN EAST,VIC,3145,2011-01-07,,APPR,-37.876835,145.0658739,11.44,https://data.gov.au/data/dataset/fa0b0d71-b8b8-4af8-bc59-0b000ce0d5e4/resource/3abf1383-c4e5-4c1a-8331-8434b17b6f10/download/credit_lic_202602.tsv
asic_credit_licensee,licensee,acl,388798,388798,LEESVILLE CONSULTANT PTY LTD,19109495294,RICHMOND,VIC,3121,2010-12-17,,APPR,-37.8203955,145.0025153,3.54,https://data.gov.au/data/dataset/fa0b0d71-b8b8-4af8-bc59-0b000ce0d5e4/resource/3abf1383-c4e5-4c1a-8331-8434b17b6f10/download/credit_lic_202602.tsv
asic_credit_licensee,licensee,acl,388808,388808,MCCA LIMITED,45129968172,COBURG,VIC,3058,2011-02-15,,APPR,-37.7449752,144.9643314,7.63,https://data.gov.au/data/dataset/fa0b0d71-b8b8-4af8-bc59-0b000ce0d5e4/resource/3abf1383-c4e5-4c1a-8331-8434b17b6f10/download/credit_lic_202602.tsv
asic_credit_licensee,licensee,acl,388810,388810,MUSLIM COMMUNITY CO-OPERATIVE AUSTRALIA LTD,85372424534,COBURG,VIC,3058,2011-02-15,,APPR,-37.7449752,144.9643314,7.63,https://data.gov.au/data/dataset/fa0b0d71-b8b8-4af8-bc59-0b000ce0d5e4/resource/3abf1383-c4e5-4c1a-8331-8434b17b6f10/download/credit_lic_202602.tsv
asic_credit_licensee,licensee,acl,388826,388826,TRUSTEES OF P.A & N.J CAYZER FAMILY TRUST,143408842,CRANBOURNE,VIC,3977,2010-12-20,,APPR,-38.0997308,145.2807256,42.28,https://data.gov.au/data/dataset/fa0b0d71-b8b8-4af8-bc59-0b000ce0d5e4/resource/3abf1383-c4e5-4c1a-8331-8434b17b6f10/download/credit_lic_202602.tsv
asic_credit_licensee,licensee,acl,388827,388827,GILBERT RETAIL MILDURA PTY LTD,67125060362,MILDURA,VIC,3500,2011-01-01,,APPR,-34.195274,142.1503146,475.22,https://data.gov.au/data/dataset/fa0b0d71-b8b8-4af8-bc59-0b000ce0d5e4/resource/3abf1383-c4e5-4c1a-8331-8434b17b6f10/download/credit_lic_202602.tsv
asic_credit_licensee,licensee,acl,388831,388831,PROPER FINANCE PTY LTD,120071516,DOCKLANDS,VIC,3008,2010-12-17,,APPR,-37.8175423,144.9394923,2.12,https://data.gov.au/data/dataset/fa0b0d71-b8b8-4af8-bc59-0b000ce0d5e4/resource/3abf1383-c4e5-4c1a-8331-8434b17b6f10/download/credit_lic_202602.tsv
asic_credit_licensee,licensee,acl,388858,388858,AFN CORPORATE FINANCE PTY. LTD.,44107865681,HEIDELBERG,VIC,3084,2010-12-23,,APPR,-37.7524788,145.0701284,11.60,https://data.gov.au/data/dataset/fa0b0d71-b8b8-4af8-bc59-0b000ce0d5e4/resource/3abf1383-c4e5-4c1a-8331-8434b17b6f10/download/credit_lic_202602.tsv
asic_credit_licensee,licensee,acl,388963,388963,SUMMIT COUNTY PTY. LTD.,79074395823,POINT COOK,VIC,3030,2011-01-13,,APPR,-37.9064862,144.7533059,21.12,https://data.gov.au/data/dataset/fa0b0d71-b8b8-4af8-bc59-0b000ce0d5e4/resource/3abf1383-c4e5-4c1a-8331-8434b17b6f10/download/credit_lic_202602.tsv
asic_credit_licensee,licensee,acl,388967,388967,MANNING ENTERPRISES PTY. LTD.,14006851618,QUEENSCLIFF,VIC,3225,2010-12-16,,APPR,-38.2671132,144.6612949,56.93,https://data.gov.au/data/dataset/fa0b0d71-b8b8-4af8-bc59-0b000ce0d5e4/resource/3abf1383-c4e5-4c1a-8331-8434b17b6f10/download/credit_lic_202602.tsv
asic_credit_licensee,licensee,acl,388969,388969,TEOC PTY LTD,62092567729,COBURG NORTH,VIC,3058,2010-12-07,,APPR,-37.7272635,144.967853787234,9.61,https://data.gov.au/data/dataset/fa0b0d71-b8b8-4af8-bc59-0b000ce0d5e4/resource/3abf1383-c4e5-4c1a-8331-8434b17b6f10/download/credit_lic_202602.tsv
asic_credit_licensee,licensee,acl,388976,388976,"TSIALTAS, SOFIANOS",27862025118,COBURG,VIC,3058,2011-01-28,,APPR,-37.7449752,144.9643314,7.63,https://data.gov.au/data/dataset/fa0b0d71-b8b8-4af8-bc59-0b000ce0d5e4/resource/3abf1383-c4e5-4c1a-8331-8434b17b6f10/download/credit_lic_202602.tsv
asic_credit_licensee,licensee,acl,388983,388983,MELBOURNE HOME LOANS PTY. LTD.,65083671443,COLLINGWOOD,VIC,3066,2010-12-16,,APPR,-37.802104,144.9881387,2.54,https://data.gov.au/data/dataset/fa0b0d71-b8b8-4af8-bc59-0b000ce0d5e4/resource/3abf1383-c4e5-4c1a-8331-8434b17b6f10/download/credit_lic_202602.tsv
asic_credit_licensee,licensee,acl,388986,388986,TQS FINANCIAL SERVICE PTY LTD,25103478619,COLLINGWOOD,VIC,3066,2010-12-16,,APPR,-37.802104,144.9881387,2.54,https://data.gov.au/data/dataset/fa0b0d71-b8b8-4af8-bc59-0b000ce0d5e4/resource/3abf1383-c4e5-4c1a-8331-8434b17b6f10/download/credit_lic_202602.tsv
asic_credit_licensee,licensee,acl,388994,388994,AUSTRALIAN FINANCIAL LOAN MANAGEMENT PTY LIMITED,90069311486,MELBOURNE,VIC,3000,2011-02-21,,APPR,-37.8142454,144.9631732,0.07,https://data.gov.au/data/dataset/fa0b0d71-b8b8-4af8-bc59-0b000ce0d5e4/resource/3abf1383-c4e5-4c1a-8331-8434b17b6f10/download/credit_lic_202602.tsv
asic_credit_licensee,licensee,acl,389067,389067,MONEY3 LOANS PTY LTD,36108979406,BUNDOORA,VIC,3083,2011-01-11,,APPR,-37.6982468,145.0596757,15.38,https://data.gov.au/data/dataset/fa0b0d71-b8b8-4af8-bc59-0b000ce0d5e4/resource/3abf1383-c4e5-4c1a-8331-8434b17b6f10/download/credit_lic_202602.tsv
asic_credit_licensee,licensee,acl,389077,389077,COLLATERAL FINANCE PTY. LTD.,71095243940,MACLEOD,VIC,3085,2011-02-03,,APPR,-37.72607,145.0691378,13.48,https://data.gov.au/data/dataset/fa0b0d71-b8b8-4af8-bc59-0b000ce0d5e4/resource/3abf1383-c4e5-4c1a-8331-8434b17b6f10/download/credit_lic_202602.tsv
asic_credit_licensee,licensee,acl,389081,389081,DEBT RESOLUTIONS PTY LTD,96116298803,BUNDOORA,VIC,3083,2011-03-24,,APPR,-37.6982468,145.0596757,15.38,https://data.gov.au/data/dataset/fa0b0d71-b8b8-4af8-bc59-0b000ce0d5e4/resource/3abf1383-c4e5-4c1a-8331-8434b17b6f10/download/credit_lic_202602.tsv
asic_credit_licensee,licensee,acl,389082,389082,FORESIGHT FINANCIAL GROUP PTY LTD,44120926472,WAVERLEY,VIC,3150,2010-12-07,,APPR,-37.8796677499999,145.162916248939,19.02,https://data.gov.au/data/dataset/fa0b0d71-b8b8-4af8-bc59-0b000ce0d5e4/resource/3abf1383-c4e5-4c1a-8331-8434b17b6f10/download/credit_lic_202602.tsv
asic_credit_licensee,licensee,acl,389093,389093,JOHN HOPKINS MORTGAGES PTY LTD,98103423829,MELBOURNE,VIC,3000,2010-12-17,,APPR,-37.8142454,144.9631732,0.07,https://data.gov.au/data/dataset/fa0b0d71-b8b8-4af8-bc59-0b000ce0d5e4/resource/3abf1383-c4e5-4c1a-8331-8434b17b6f10/download/credit_lic_202602.tsv
asic_credit_licensee,licensee,acl,389112,389112,PROPERTY PLANNING AUSTRALIA (NSW) PTY LTD,63132650929,HAWTHORN EAST,VIC,3123,2011-02-07,,APPR,-37.8313785,145.0499797,7.88,https://data.gov.au/data/dataset/fa0b0d71-b8b8-4af8-bc59-0b000ce0d5e4/resource/3abf1383-c4e5-4c1a-8331-8434b17b6f10/download/credit_lic_202602.tsv
asic_credit_licensee,licensee,acl,389114,389114,CHOICE CORPORATE PTY LTD,18131366008,SHEPPARTON,VIC,3630,2010-12-08,,APPR,-36.3831633,145.3988874,163.69,https://data.gov.au/data/dataset/fa0b0d71-b8b8-4af8-bc59-0b000ce0d5e4/resource/3abf1383-c4e5-4c1a-8331-8434b17b6f10/download/credit_lic_202602.tsv
asic_credit_licensee,licensee,acl,389128,389128,TANNASTER PTY LTD,88092875646,BUNDOORA,VIC,3083,2011-01-21,,APPR,-37.6982468,145.0596757,15.38,https://data.gov.au/data/dataset/fa0b0d71-b8b8-4af8-bc59-0b000ce0d5e4/resource/3abf1383-c4e5-4c1a-8331-8434b17b6f10/download/credit_lic_202602.tsv
asic_credit_licensee,licensee,acl,389153,389153,DAVID SHARPE BUSINESS SERVICES PTY. LTD.,6067170,BENTLEIGH EAST,VIC,3165,2011-02-21,,APPR,-37.9220201,145.0665529,15.09,https://data.gov.au/data/dataset/fa0b0d71-b8b8-4af8-bc59-0b000ce0d5e4/resource/3abf1383-c4e5-4c1a-8331-8434b17b6f10/download/credit_lic_202602.tsv
asic_credit_licensee,licensee,acl,389167,389167,SJM FINANCIAL ENTERPRISES PTY LTD,78118857971,MELBOURNE,VIC,3000,2010-12-08,,APPR,-37.8142454,144.9631732,0.07,https://data.gov.au/data/dataset/fa0b0d71-b8b8-4af8-bc59-0b000ce0d5e4/resource/3abf1383-c4e5-4c1a-8331-8434b17b6f10/download/credit_lic_202602.tsv
asic_credit_licensee,licensee,acl,389191,389191,SJM FINANCIAL SOLUTIONS PTY. LTD.,33141107940,MELBOURNE,VIC,3000,2010-12-24,,APPR,-37.8142454,144.9631732,0.07,https://data.gov.au/data/dataset/fa0b0d71-b8b8-4af8-bc59-0b000ce0d5e4/resource/3abf1383-c4e5-4c1a-8331-8434b17b6f10/download/credit_lic_202602.tsv
asic_credit_licensee,licensee,acl,389276,389276,FELLOWSHIP OF CHRISTIANS UNDERTAKING STEWARDSHIP INC,38495103019,KILSYTH SOUTH,VIC,3137,2011-02-18,,APPR,-37.8315054,145.3110008,30.62,https://data.gov.au/data/dataset/fa0b0d71-b8b8-4af8-bc59-0b000ce0d5e4/resource/3abf1383-c4e5-4c1a-8331-8434b17b6f10/download/credit_lic_202602.tsv
asic_credit_licensee,licensee,acl,389279,389279,"LOMBARDO, JOHN VINCENT",86950909264,CHELSEA HEIGHTS,VIC,3196,2011-01-18,,APPR,-38.0395381,145.132786,29.20,https://data.gov.au/data/dataset/fa0b0d71-b8b8-4af8-bc59-0b000ce0d5e4/resource/3abf1383-c4e5-4c1a-8331-8434b17b6f10/download/credit_lic_202602.tsv
asic_credit_licensee,licensee,acl,389328,389328,CONNECTIVE CREDIT SERVICES PTY LTD,51143651496,MELBOURNE,VIC,3000,2010-12-24,,APPR,-37.8142454,144.9631732,0.07,https://data.gov.au/data/dataset/fa0b0d71-b8b8-4af8-bc59-0b000ce0d5e4/resource/3abf1383-c4e5-4c1a-8331-8434b17b6f10/download/credit_lic_202602.tsv
asic_credit_licensee,licensee,acl,389416,389416,COLLINS SECURITIES PTY. LTD.,30004400597,MELBOURNE,VIC,3001,2010-12-17,,APPR,-37.8142454,144.9631732,0.07,https://data.gov.au/data/dataset/fa0b0d71-b8b8-4af8-bc59-0b000ce0d5e4/resource/3abf1383-c4e5-4c1a-8331-8434b17b6f10/download/credit_lic_202602.tsv
asic_credit_licensee,licensee,acl,389457,389457,MARK HARPER PTY. LTD.,15007289465,CORONET BAY,VIC,3984,2010-12-09,,APPR,-38.434616,145.4450767,80.91,https://data.gov.au/data/dataset/fa0b0d71-b8b8-4af8-bc59-0b000ce0d5e4/resource/3abf1383-c4e5-4c1a-8331-8434b17b6f10/download/credit_lic_202602.tsv
asic_credit_licensee,licensee,acl,389460,389460,PORT GROUP PTY LTD,132877699,CHADSTONE,VIC,3148,2011-01-10,,APPR,-37.8822799,145.1001365,14.25,https://data.gov.au/data/dataset/fa0b0d71-b8b8-4af8-bc59-0b000ce0d5e4/resource/3abf1383-c4e5-4c1a-8331-8434b17b6f10/download/credit_lic_202602.tsv
asic_credit_licensee,licensee,acl,389463,389463,PLG FINANCE PTY. LTD.,25138831400,MELBOURNE,VIC,3000,2010-12-17,,APPR,-37.8142454,144.9631732,0.07,https://data.gov.au/data/dataset/fa0b0d71-b8b8-4af8-bc59-0b000ce0d5e4/resource/3abf1383-c4e5-4c1a-8331-8434b17b6f10/download/credit_lic_202602.tsv
asic_credit_licensee,licensee,acl,389498,389498,"WILLIAMS, ADRIAN MURRAY",95865117889,EAST MELBOURNE,VIC,3002,2011-02-03,,APPR,-37.812498,144.9858851,2.01,https://data.gov.au/data/dataset/fa0b0d71-b8b8-4af8-bc59-0b000ce0d5e4/resource/3abf1383-c4e5-4c1a-8331-8434b17b6f10/download/credit_lic_202602.tsv
asic_credit_licensee,licensee,acl,389527,389527,COG AGGREGATION PTY LTD,99124319857,HAWTHORN,VIC,3122,2011-01-05,,APPR,-37.8244246,145.0317207,6.15,https://data.gov.au/data/dataset/fa0b0d71-b8b8-4af8-bc59-0b000ce0d5e4/resource/3abf1383-c4e5-4c1a-8331-8434b17b6f10/download/credit_lic_202602.tsv
asic_credit_licensee,licensee,acl,389530,389530,HAPPY.COM.AU PTY LTD,50124677247,BUNDOORA,VIC,3083,2011-03-24,,APPR,-37.6982468,145.0596757,15.38,https://data.gov.au/data/dataset/fa0b0d71-b8b8-4af8-bc59-0b000ce0d5e4/resource/3abf1383-c4e5-4c1a-8331-8434b17b6f10/download/credit_lic_202602.tsv
asic_credit_licensee,licensee,acl,389546,389546,STATE SECURITIES PTY LTD,88690466,CARLTON,VIC,3053,2010-12-21,,APPR,-37.8004228,144.9684343,1.54,https://data.gov.au/data/dataset/fa0b0d71-b8b8-4af8-bc59-0b000ce0d5e4/resource/3abf1383-c4e5-4c1a-8331-8434b17b6f10/download/credit_lic_202602.tsv
asic_credit_licensee,licensee,acl,389564,389564,MCMURRICK GROUP PTY. LTD.,48076468490,TOORAK,VIC,3142,2011-01-11,,APPR,-37.8506481,145.0138307,6.07,https://data.gov.au/data/dataset/fa0b0d71-b8b8-4af8-bc59-0b000ce0d5e4/resource/3abf1383-c4e5-4c1a-8331-8434b17b6f10/download/credit_lic_202602.tsv
asic_credit_licensee,licensee,acl,389572,389572,ASP FINANCIAL HOLDINGS PTY LTD,130078769,RINGWOOD,VIC,3134,2011-02-21,,APPR,-37.8158726,145.22911125106,23.37,https://data.gov.au/data/dataset/fa0b0d71-b8b8-4af8-bc59-0b000ce0d5e4/resource/3abf1383-c4e5-4c1a-8331-8434b17b6f10/download/credit_lic_202602.tsv
asic_credit_licensee,licensee,acl,389574,389574,BONGIORNO FINANCE PTY LTD,60113136379,MELBOURNE,VIC,3004,2011-02-16,,APPR,-37.8142454,144.9631732,0.07,https://data.gov.au/data/dataset/fa0b0d71-b8b8-4af8-bc59-0b000ce0d5e4/resource/3abf1383-c4e5-4c1a-8331-8434b17b6f10/download/credit_lic_202602.tsv
asic_credit_licensee,licensee,acl,389579,389579,OMNI CAPITAL PTY LTD,96093690030,DOCKLANDS,VIC,3008,2011-01-12,,APPR,-37.8175423,144.9394923,2.12,https://data.gov.au/data/dataset/fa0b0d71-b8b8-4af8-bc59-0b000ce0d5e4/resource/3abf1383-c4e5-4c1a-8331-8434b17b6f10/download/credit_lic_202602.tsv
asic_credit_licensee,licensee,acl,389605,389605,FINANCE PLUS HOME LOANS PTY. LTD.,41098601202,HEIDELBERG,VIC,3084,2010-12-16,,APPR,-37.7524788,145.0701284,11.60,https://data.gov.au/data/dataset/fa0b0d71-b8b8-4af8-bc59-0b000ce0d5e4/resource/3abf1383-c4e5-4c1a-8331-8434b17b6f10/download/credit_lic_202602.tsv
asic_credit_licensee,licensee,acl,389609,389609,WIW FINANCE PTY LTD,131708677,MELBOURNE,VIC,3000,2010-11-30,,APPR,-37.8142454,144.9631732,0.07,https://data.gov.au/data/dataset/fa0b0d71-b8b8-4af8-bc59-0b000ce0d5e4/resource/3abf1383-c4e5-4c1a-8331-8434b17b6f10/download/credit_lic_202602.tsv
asic_credit_licensee,licensee,acl,389678,389678,MELBOURNIA FINANCE SOLUTIONS PTY LTD,129316730,KILDA,VIC,3182,2010-12-20,,APPR,-37.8638261,144.981637,5.82,https://data.gov.au/data/dataset/fa0b0d71-b8b8-4af8-bc59-0b000ce0d5e4/resource/3abf1383-c4e5-4c1a-8331-8434b17b6f10/download/credit_lic_202602.tsv
asic_credit_licensee,licensee,acl,389683,389683,"KINSELLA, CHRISTOPHER WILLIAM",57360459649,HIGHETT,VIC,3190,2011-02-04,,APPR,-37.9484438,145.04188,16.51,https://data.gov.au/data/dataset/fa0b0d71-b8b8-4af8-bc59-0b000ce0d5e4/resource/3abf1383-c4e5-4c1a-8331-8434b17b6f10/download/credit_lic_202602.tsv
asic_credit_licensee,licensee,acl,389691,389691,ANDRANIE PTY. LTD.,72123800019,RINGWOOD,VIC,3134,2010-12-13,,APPR,-37.8158726,145.22911125106,23.37,https://data.gov.au/data/dataset/fa0b0d71-b8b8-4af8-bc59-0b000ce0d5e4/resource/3abf1383-c4e5-4c1a-8331-8434b17b6f10/download/credit_lic_202602.tsv
asic_credit_licensee,licensee,acl,389741,389741,REGAL FINANCIAL SERVICES PTY. LTD.,37099977983,KEILOR PARK,VIC,3042,2010-12-10,,APPR,-37.7187247,144.8501721,14.49,https://data.gov.au/data/dataset/fa0b0d71-b8b8-4af8-bc59-0b000ce0d5e4/resource/3abf1383-c4e5-4c1a-8331-8434b17b6f10/download/credit_lic_202602.tsv
asic_credit_licensee,licensee,acl,389757,389757,REGENT FINANCE (AUST) PTY LTD,24006870293,PRESTON,VIC,3072,2011-01-07,,APPR,-37.7418658,145.0078205,8.89,https://data.gov.au/data/dataset/fa0b0d71-b8b8-4af8-bc59-0b000ce0d5e4/resource/3abf1383-c4e5-4c1a-8331-8434b17b6f10/download/credit_lic_202602.tsv
asic_credit_licensee,licensee,acl,389771,389771,"CAMILLERI, UJJALA",61579866884,HILLSIDE,VIC,3037,2011-01-25,,APPR,-37.6904862,144.7417358,23.79,https://data.gov.au/data/dataset/fa0b0d71-b8b8-4af8-bc59-0b000ce0d5e4/resource/3abf1383-c4e5-4c1a-8331-8434b17b6f10/download/credit_lic_202602.tsv
asic_credit_licensee,licensee,acl,389782,389782,SOLVAR LIMITED,63117296143,BUNDOORA,VIC,3083,2011-03-24,,APPR,-37.6982468,145.0596757,15.38,https://data.gov.au/data/dataset/fa0b0d71-b8b8-4af8-bc59-0b000ce0d5e4/resource/3abf1383-c4e5-4c1a-8331-8434b17b6f10/download/credit_lic_202602.tsv
asic_credit_licensee,licensee,acl,389794,389794,KONCEPT FINANCE GROUP PTY LTD,92116971021,NOTTING HILL,VIC,3168,2011-01-13,,APPR,-37.905582,145.1455616,19.01,https://data.gov.au/data/dataset/fa0b0d71-b8b8-4af8-bc59-0b000ce0d5e4/resource/3abf1383-c4e5-4c1a-8331-8434b17b6f10/download/credit_lic_202602.tsv
asic_credit_licensee,licensee,acl,389796,389796,DEVELOP & INVEST PTY LTD,31108044104,MOUNT ELIZA,VIC,3930,2010-12-24,,APPR,-38.1837759,145.0892789,42.62,https://data.gov.au/data/dataset/fa0b0d71-b8b8-4af8-bc59-0b000ce0d5e4/resource/3abf1383-c4e5-4c1a-8331-8434b17b6f10/download/credit_lic_202602.tsv
asic_credit_licensee,licensee,acl,389797,389797,THE FINANCE GURU PTY LTD,140844668,ASHBURTON,VIC,3147,2011-01-17,,APPR,-37.862047,145.0812907,11.69,https://data.gov.au/data/dataset/fa0b0d71-b8b8-4af8-bc59-0b000ce0d5e4/resource/3abf1383-c4e5-4c1a-8331-8434b17b6f10/download/credit_lic_202602.tsv
asic_credit_licensee,licensee,acl,389799,389799,DALICH PTY LTD,50074445097,CROYDON,VIC,3136,2011-01-07,,APPR,-37.7954517,145.2804445,27.95,https://data.gov.au/data/dataset/fa0b0d71-b8b8-4af8-bc59-0b000ce0d5e4/resource/3abf1383-c4e5-4c1a-8331-8434b17b6f10/download/credit_lic_202602.tsv
asic_credit_licensee,licensee,acl,389805,389805,ANZ LENDERS MORTGAGE INSURANCE PTY. LIMITED,77008680055,DOCKLANDS,VIC,3008,2011-03-01,,APPR,-37.8175423,144.9394923,2.12,https://data.gov.au/data/dataset/fa0b0d71-b8b8-4af8-bc59-0b000ce0d5e4/resource/3abf1383-c4e5-4c1a-8331-8434b17b6f10/download/credit_lic_202602.tsv
asic_credit_licensee,licensee,acl,389816,389816,FINANCE FUNDING AUSTRALIA PTY LTD,20131309754,CAULFIELD,VIC,3162,2010-12-17,,APPR,-37.8840642,145.02637,9.60,https://data.gov.au/data/dataset/fa0b0d71-b8b8-4af8-bc59-0b000ce0d5e4/resource/3abf1383-c4e5-4c1a-8331-8434b17b6f10/download/credit_lic_202602.tsv
asic_credit_licensee,licensee,acl,389817,389817,QUICKSILVER CAPITAL PTY LTD,60136513374,TOORAK,VIC,3142,2011-01-05,,APPR,-37.8506481,145.0138307,6.07,https://data.gov.au/data/dataset/fa0b0d71-b8b8-4af8-bc59-0b000ce0d5e4/resource/3abf1383-c4e5-4c1a-8331-8434b17b6f10/download/credit_lic_202602.tsv
asic_credit_licensee,licensee,acl,389894,389894,EAGLE FINANCIAL SOLUTIONS PTY LTD,7276075,MELBOURNE,VIC,3004,2011-01-19,,APPR,-37.8142454,144.9631732,0.07,https://data.gov.au/data/dataset/fa0b0d71-b8b8-4af8-bc59-0b000ce0d5e4/resource/3abf1383-c4e5-4c1a-8331-8434b17b6f10/download/credit_lic_202602.tsv
asic_credit_licensee,licensee,acl,389904,389904,MORLEND FINANCE CORPORATION (VIC.) PROPRIETARY LIMITED,5449623,MELBOURNE,VIC,3004,2011-01-17,,APPR,-37.8142454,144.9631732,0.07,https://data.gov.au/data/dataset/fa0b0d71-b8b8-4af8-bc59-0b000ce0d5e4/resource/3abf1383-c4e5-4c1a-8331-8434b17b6f10/download/credit_lic_202602.tsv
asic_credit_licensee,licensee,acl,389906,389906,SUPERIOR MORTGAGE SOLUTIONS PTY LTD,60089678035,MELBOURNE,VIC,3004,2011-04-12,,APPR,-37.8142454,144.9631732,0.07,https://data.gov.au/data/dataset/fa0b0d71-b8b8-4af8-bc59-0b000ce0d5e4/resource/3abf1383-c4e5-4c1a-8331-8434b17b6f10/download/credit_lic_202602.tsv
asic_credit_licensee,licensee,acl,389907,389907,"MOHITHE, SATISH",81038341495,LYNDHURST,VIC,3975,2011-01-05,,APPR,-38.0685384,145.2307493,36.80,https://data.gov.au/data/dataset/fa0b0d71-b8b8-4af8-bc59-0b000ce0d5e4/resource/3abf1383-c4e5-4c1a-8331-8434b17b6f10/download/credit_lic_202602.tsv
asic_credit_licensee,licensee,acl,390024,390024,DREAMSTREET LENDING PTY LTD,50124009785,NORTHCOTE,VIC,3070,2011-02-21,,APPR,-37.7728157,145.0009469,5.62,https://data.gov.au/data/dataset/fa0b0d71-b8b8-4af8-bc59-0b000ce0d5e4/resource/3abf1383-c4e5-4c1a-8331-8434b17b6f10/download/credit_lic_202602.tsv
asic_credit_licensee,licensee,acl,390085,390085,PROLOAN (AUST) PTY LTD,98005189097,MELBOURNE,VIC,3000,2011-01-18,,APPR,-37.8142454,144.9631732,0.07,https://data.gov.au/data/dataset/fa0b0d71-b8b8-4af8-bc59-0b000ce0d5e4/resource/3abf1383-c4e5-4c1a-8331-8434b17b6f10/download/credit_lic_202602.tsv
asic_credit_licensee,licensee,acl,390107,390107,HYALINE FINANCE PTY LTD,95089147679,MELBOURNE,VIC,3000,2010-12-13,,APPR,-37.8142454,144.9631732,0.07,https://data.gov.au/data/dataset/fa0b0d71-b8b8-4af8-bc59-0b000ce0d5e4/resource/3abf1383-c4e5-4c1a-8331-8434b17b6f10/download/credit_lic_202602.tsv
asic_credit_licensee,licensee,acl,390130,390130,RESCOM COMMERCIAL FINANCE PTY LTD,19105480411,SOUTH MELBOURNE,VIC,3205,2011-01-06,,APPR,-37.83344,144.9570533,2.27,https://data.gov.au/data/dataset/fa0b0d71-b8b8-4af8-bc59-0b000ce0d5e4/resource/3abf1383-c4e5-4c1a-8331-8434b17b6f10/download/credit_lic_202602.tsv
asic_credit_licensee,licensee,acl,390161,390161,"SHARP, ANDREW GRAHAM",0,WARREN NORTH,VIC,3804,2011-01-11,,APPR,-37.9813391,145.3129016,35.92,https://data.gov.au/data/dataset/fa0b0d71-b8b8-4af8-bc59-0b000ce0d5e4/resource/3abf1383-c4e5-4c1a-8331-8434b17b6f10/download/credit_lic_202602.tsv
asic_credit_licensee,licensee,acl,390163,390163,YARRA RANGES PROPERTY FINANCE PTY LTD,16067840162,MOUNT EVELYN,VIC,3796,2011-01-21,,APPR,-37.7873186,145.3883037,37.47,https://data.gov.au/data/dataset/fa0b0d71-b8b8-4af8-bc59-0b000ce0d5e4/resource/3abf1383-c4e5-4c1a-8331-8434b17b6f10/download/credit_lic_202602.tsv
asic_credit_licensee,licensee,acl,390168,390168,OZE SMART FINANCE PTY LTD,122705088,BLACKBURN,VIC,3130,2011-02-03,,APPR,-37.82013725,145.150049618224,16.44,https://data.gov.au/data/dataset/fa0b0d71-b8b8-4af8-bc59-0b000ce0d5e4/resource/3abf1383-c4e5-4c1a-8331-8434b17b6f10/download/credit_lic_202602.tsv
asic_credit_licensee,licensee,acl,390174,390174,SOUTHERN CROSS HOLDINGS (VIC) PTY. LTD.,88097791547,BERWICK,VIC,3806,2011-03-03,,APPR,-38.0398297,145.345108856305,41.90,https://data.gov.au/data/dataset/fa0b0d71-b8b8-4af8-bc59-0b000ce0d5e4/resource/3abf1383-c4e5-4c1a-8331-8434b17b6f10/download/credit_lic_202602.tsv
asic_credit_licensee,licensee,acl,390191,390191,MORTGAGE FINANCE OPTIONS PTY LTD,66100906152,MELBOURNE,VIC,3004,2011-01-12,,APPR,-37.8142454,144.9631732,0.07,https://data.gov.au/data/dataset/fa0b0d71-b8b8-4af8-bc59-0b000ce0d5e4/resource/3abf1383-c4e5-4c1a-8331-8434b17b6f10/download/credit_lic_202602.tsv
asic_credit_licensee,licensee,acl,390198,390198,"CHHEN, WILLIAM CHE HAU",16091883985,SPRINGVALE,VIC,3171,2010-12-21,,APPR,-37.94958925,145.153782617087,22.55,https://data.gov.au/data/dataset/fa0b0d71-b8b8-4af8-bc59-0b000ce0d5e4/resource/3abf1383-c4e5-4c1a-8331-8434b17b6f10/download/credit_lic_202602.tsv
asic_credit_licensee,licensee,acl,390200,390200,ICON HOME LOANS PTY. LTD.,67086712629,MELBOURNE,VIC,3207,2011-03-04,,APPR,-37.8142454,144.9631732,0.07,https://data.gov.au/data/dataset/fa0b0d71-b8b8-4af8-bc59-0b000ce0d5e4/resource/3abf1383-c4e5-4c1a-8331-8434b17b6f10/download/credit_lic_202602.tsv
asic_credit_licensee,licensee,acl,390256,390256,"RENKEMA, GRANT HENDRICK",0,WHEELERS HILL,VIC,3150,2011-03-02,,APPR,-37.9103266,145.1895175,22.60,https://data.gov.au/data/dataset/fa0b0d71-b8b8-4af8-bc59-0b000ce0d5e4/resource/3abf1383-c4e5-4c1a-8331-8434b17b6f10/download/credit_lic_202602.tsv
asic_credit_licensee,licensee,acl,390275,390275,SIMPLY FINANCE AUSTRALIA PTY LTD,38146182256,MELBOURNE,VIC,3207,2011-01-20,,APPR,-37.8142454,144.9631732,0.07,https://data.gov.au/data/dataset/fa0b0d71-b8b8-4af8-bc59-0b000ce0d5e4/resource/3abf1383-c4e5-4c1a-8331-8434b17b6f10/download/credit_lic_202602.tsv
asic_credit_licensee,licensee,acl,390291,390291,SCARBOROUGH FINANCE SOLUTIONS PTY LTD,42123989980,WOODEND,VIC,3442,2011-02-15,,APPR,-37.3536857,144.5341381,63.59,https://data.gov.au/data/dataset/fa0b0d71-b8b8-4af8-bc59-0b000ce0d5e4/resource/3abf1383-c4e5-4c1a-8331-8434b17b6f10/download/credit_lic_202602.tsv
asic_credit_licensee,licensee,acl,390347,390347,SAGE LENDING SOLUTIONS PTY LTD,47111178940,MITCHAM,VIC,3132,2011-01-20,,APPR,-37.8180929,145.1928003,20.18,https://data.gov.au/data/dataset/fa0b0d71-b8b8-4af8-bc59-0b000ce0d5e4/resource/3abf1383-c4e5-4c1a-8331-8434b17b6f10/download/credit_lic_202602.tsv
asic_credit_licensee,licensee,acl,390397,390397,XOCAI PTY. LTD.,69144663203,ALTONA,VIC,3018,2010-12-23,,APPR,-37.86715875,144.829497424727,13.16,https://data.gov.au/data/dataset/fa0b0d71-b8b8-4af8-bc59-0b000ce0d5e4/resource/3abf1383-c4e5-4c1a-8331-8434b17b6f10/download/credit_lic_202602.tsv
asic_credit_licensee,licensee,acl,390407,390407,FINANCIAL LOGIC AUSTRALIA PTY. LTD.,78123611316,MELBOURNE,VIC,3000,2011-01-06,,APPR,-37.8142454,144.9631732,0.07,https://data.gov.au/data/dataset/fa0b0d71-b8b8-4af8-bc59-0b000ce0d5e4/resource/3abf1383-c4e5-4c1a-8331-8434b17b6f10/download/credit_lic_202602.tsv
asic_credit_licensee,licensee,acl,390458,390458,S.M.E. COMMERCIAL FINANCE PTY LTD,23091099839,SOUTH YARRA,VIC,3141,2010-12-23,,APPR,-37.8377695,144.9918537,3.69,https://data.gov.au/data/dataset/fa0b0d71-b8b8-4af8-bc59-0b000ce0d5e4/resource/3abf1383-c4e5-4c1a-8331-8434b17b6f10/download/credit_lic_202602.tsv
asic_credit_licensee,licensee,acl,390486,390486,MOCHRIM PTY. LTD.,20107553211,CAULFIELD NORTH,VIC,3161,2011-03-17,,APPR,-37.870828,145.0218005,8.19,https://data.gov.au/data/dataset/fa0b0d71-b8b8-4af8-bc59-0b000ce0d5e4/resource/3abf1383-c4e5-4c1a-8331-8434b17b6f10/download/credit_lic_202602.tsv
asic_credit_licensee,licensee,acl,390496,390496,THE LEASE COMPANY PTY LTD,48087669618,MITCHAM,VIC,3132,2011-02-18,,APPR,-37.8180929,145.1928003,20.18,https://data.gov.au/data/dataset/fa0b0d71-b8b8-4af8-bc59-0b000ce0d5e4/resource/3abf1383-c4e5-4c1a-8331-8434b17b6f10/download/credit_lic_202602.tsv
asic_credit_licensee,licensee,acl,390525,390525,EUREKA HOME LOANS (VIC) PTY LTD,111635262,BAKERY HILL,VIC,3350,2010-12-21,,APPR,-37.5622281,143.865975076607,100.51,https://data.gov.au/data/dataset/fa0b0d71-b8b8-4af8-bc59-0b000ce0d5e4/resource/3abf1383-c4e5-4c1a-8331-8434b17b6f10/download/credit_lic_202602.tsv
asic_credit_licensee,licensee,acl,390588,390588,"APAI, STEVEN",0,BORONIA BORONIA,VIC,3155,2011-02-15,,APPR,-37.860645,145.2848446,28.73,https://data.gov.au/data/dataset/fa0b0d71-b8b8-4af8-bc59-0b000ce0d5e4/resource/3abf1383-c4e5-4c1a-8331-8434b17b6f10/download/credit_lic_202602.tsv
asic_credit_licensee,licensee,acl,390615,390615,G.H GRONDOWSKI & T WULIANADI,24196358405,AVONDALE HEIGHTS,VIC,3034,2011-01-31,,APPR,-37.7614537,144.862141,10.60,https://data.gov.au/data/dataset/fa0b0d71-b8b8-4af8-bc59-0b000ce0d5e4/resource/3abf1383-c4e5-4c1a-8331-8434b17b6f10/download/credit_lic_202602.tsv
asic_credit_licensee,licensee,acl,390620,390620,FIRM FINANCE PTY LTD,22071086274,MELBOURNE,VIC,3000,2011-01-12,,APPR,-37.8142454,144.9631732,0.07,https://data.gov.au/data/dataset/fa0b0d71-b8b8-4af8-bc59-0b000ce0d5e4/resource/3abf1383-c4e5-4c1a-8331-8434b17b6f10/download/credit_lic_202602.tsv
asic_credit_licensee,licensee,acl,390645,390645,JB FINANCE PTY LTD,36098300291,LYSTERFIELD,VIC,3156,2011-01-12,,APPR,-37.9348771,145.3017588,32.64,https://data.gov.au/data/dataset/fa0b0d71-b8b8-4af8-bc59-0b000ce0d5e4/resource/3abf1383-c4e5-4c1a-8331-8434b17b6f10/download/credit_lic_202602.tsv
asic_credit_licensee,licensee,acl,390652,390652,TREKER PTY LTD,26084798069,LYSTERFIELD,VIC,3156,2010-12-15,,APPR,-37.9348771,145.3017588,32.64,https://data.gov.au/data/dataset/fa0b0d71-b8b8-4af8-bc59-0b000ce0d5e4/resource/3abf1383-c4e5-4c1a-8331-8434b17b6f10/download/credit_lic_202602.tsv
asic_credit_licensee,licensee,acl,390664,390664,ALLIANCE FINANCIAL GROUP PTY LTD,12123511848,MELBOURNE,VIC,3000,2011-03-03,,APPR,-37.8142454,144.9631732,0.07,https://data.gov.au/data/dataset/fa0b0d71-b8b8-4af8-bc59-0b000ce0d5e4/resource/3abf1383-c4e5-4c1a-8331-8434b17b6f10/download/credit_lic_202602.tsv
asic_credit_licensee,licensee,acl,390666,390666,"BHATIA, VIKRAM",48379465892,POINT COOK,VIC,3030,2011-02-02,,APPR,-37.9064862,144.7533059,21.12,https://data.gov.au/data/dataset/fa0b0d71-b8b8-4af8-bc59-0b000ce0d5e4/resource/3abf1383-c4e5-4c1a-8331-8434b17b6f10/download/credit_lic_202602.tsv
asic_credit_licensee,licensee,acl,390720,390720,GOKUSTAR PTY LTD,52107703695,HAWTHORN EAST,VIC,3123,2011-02-02,,APPR,-37.8313785,145.0499797,7.88,https://data.gov.au/data/dataset/fa0b0d71-b8b8-4af8-bc59-0b000ce0d5e4/resource/3abf1383-c4e5-4c1a-8331-8434b17b6f10/download/credit_lic_202602.tsv
asic_credit_licensee,licensee,acl,390765,390765,AUSTRALIA & NZ FINANCE CORPORATION PTY. LTD.,53121672080,LALOR,VIC,3075,2011-02-25,,APPR,-37.662922,145.003955,17.14,https://data.gov.au/data/dataset/fa0b0d71-b8b8-4af8-bc59-0b000ce0d5e4/resource/3abf1383-c4e5-4c1a-8331-8434b17b6f10/download/credit_lic_202602.tsv
asic_credit_licensee,licensee,acl,390787,390787,WM FINANCE PTY LTD,47109315951,BALLARAT NORTH,VIC,3350,2011-01-01,,APPR,-37.5372175,143.864728319163,101.43,https://data.gov.au/data/dataset/fa0b0d71-b8b8-4af8-bc59-0b000ce0d5e4/resource/3abf1383-c4e5-4c1a-8331-8434b17b6f10/download/credit_lic_202602.tsv
asic_credit_licensee,licensee,acl,390790,390790,ONYX FINANCE PTY LTD,84100509386,CAULFIELD,VIC,3162,2011-01-28,,APPR,-37.8840642,145.02637,9.60,https://data.gov.au/data/dataset/fa0b0d71-b8b8-4af8-bc59-0b000ce0d5e4/resource/3abf1383-c4e5-4c1a-8331-8434b17b6f10/download/credit_lic_202602.tsv
asic_credit_licensee,licensee,acl,390843,390843,SIMPLY MONEY PTY LTD,16110125347,SANDHURST,VIC,3977,2011-01-19,,APPR,-38.0843524,145.2011775,36.64,https://data.gov.au/data/dataset/fa0b0d71-b8b8-4af8-bc59-0b000ce0d5e4/resource/3abf1383-c4e5-4c1a-8331-8434b17b6f10/download/credit_lic_202602.tsv
asic_credit_licensee,licensee,acl,390859,390859,INVESTOR CASHFLOW FINANCE PTY LTD,25117597314,TARNEIT,VIC,3029,2011-02-10,,APPR,-37.8321522,144.69462,23.67,https://data.gov.au/data/dataset/fa0b0d71-b8b8-4af8-bc59-0b000ce0d5e4/resource/3abf1383-c4e5-4c1a-8331-8434b17b6f10/download/credit_lic_202602.tsv
asic_credit_licensee,licensee,acl,390903,390903,NIDAV NOMINEES PTY. LTD.,51072054338,FRANKSTON,VIC,3199,2011-01-01,,APPR,-38.15092505,145.142238982301,40.66,https://data.gov.au/data/dataset/fa0b0d71-b8b8-4af8-bc59-0b000ce0d5e4/resource/3abf1383-c4e5-4c1a-8331-8434b17b6f10/download/credit_lic_202602.tsv
